Cycle,FMZ,Lake Size Class,Lake Name,LID,Latitude,Longitude,DD5 8110,Air Temp 8110,Target Species,Lake Selection,Surf Area,Mean Depth (m),Max Depth (m),Volume (m3),Water Quality Sample Dates,Temperature/DO Sample Dates,Large and Small Mesh Netting Sample Dates
3,2,5000-250000,Deer L.,15-4198-58335,52.63469,-94.20479,1406,0.3,,Supplemental,14580.6,14.5,66,2115625694,,22-Aug-22,"09-Aug-22, 10-Aug-22, 11-Aug-22"
3,4,1500-5000,Abram L.,15-5765-55453,50.05909,-91.92916,1630,2.2, Walleye,Trend,2438.5,13.4,40,325790362.5,23-May-22,02-Jun-22,"01-Jun-22, 02-Jun-22, 03-Jun-22, 04-Jun-22, 05-Jun-22, 31-May-22"
3,4,500-1500,Amik L.,15-5782-55201,49.83026,-91.91356,1626,2.4, Walleye,Trend,1161.6,5.5,20.4,63260997.31,23-May-19,22-Jun-19,"19-Jun-19, 20-Jun-19, 21-Jun-19"
3,4,1500-5000,Anishinabi L.,15-4674-55871,50.43988,-93.44327,1607,2.3, Lake Trout,Trend,3295.5,32,88.8,1054920946,,05-Aug-22,"05-Aug-22, 06-Aug-22, 07-Aug-22, 08-Aug-22"
3,4,500-1500,Arc L.,15-6471-56202,50.71702,-90.90662,1488,1.3, Walleye,Trend,596.3,5.7,31,34178029.16,27-May-19,20-Jul-19,"16-Jul-19, 17-Jul-19, 18-Jul-19"
3,4,500-1500,Arethusa L.,15-5837-55088,49.71847,-91.86176,1619,2.4, Walleye,Trend,767.9,6.2,18,48496399.26,23-May-19,24-Jul-19,"20-Jul-19, 21-Jul-19, 22-Jul-19, 23-Jul-19"
3,4,50-500,Bawden L.,15-6011-55383,49.99869,-91.58399,1599,2.2, Walleye,Trend,376.2,3.4,11,13120600.16,23-May-22,23-Jun-19,"23-Jun-19, 24-Jun-19, 25-Jun-19"
3,4,1500-5000,Bell L.,15-6500-55194,49.80966,-90.93897,1520,2, Lake Trout,Trend,4161.8,9.5,34.4,396112009.3,25-May-22,23-Aug-22,"23-Aug-22, 24-Aug-22, 25-Aug-22, 26-Aug-22, 27-Aug-22"
3,4,1500-5000,Berens L.,15-4525-57350,51.75814,-93.71456,1454,0.9, Walleye,Trend,2661.7,4.7,11.6,131148790.1,22-May-22,,
3,4,50-500,Bertaud L.,15-6617-56410,50.89944,-90.69978,1465,1.1, Walleye,Trend,412.6,6.9,24,28814535.02,27-May-19,20-Jul-19,"20-Jul-19, 21-Jul-19"
3,4,1500-5000,Big Canon L.,15-4455-55462,50.06847,-93.75888,1690,2.8, Lake Trout,Trend,2089.2,21.6,63,451307120.9,26-May-22,"04-Aug-22, 06-Aug-22","03-Aug-22, 04-Aug-22, 05-Aug-22"
3,4,1500-5000,Big Fox L.,15-4131-55595,50.17355,-94.19317,1700,2.8, Walleye,Trend,1624.3,7.8,33.7,127065980,26-May-22,20-Jun-22,"18-Jun-22, 19-Jun-22, 20-Jun-22"
3,4,1500-5000,Big Sandy L.,15-5463-55189,49.82359,-92.36295,1647,2.5, Lake Trout,Trend,3808.1,20.3,41,775500560.9,21-May-19,30-Aug-19,"26-Aug-19, 27-Aug-19, 28-Aug-19, 29-Aug-19, 30-Aug-19"
3,4,5000-250000,Big Vermilion L.,15-5556-55428,50.04484,-92.20826,1636,2.3, Lake Trout,Trend,6900.5,12.6,41,871168593.9,23-May-22,03-Jul-21,"03-Jul-21, 04-Jul-21, 05-Jul-21, 06-Jul-21, 07-Jul-21"
3,4,5000-250000,Birch L.,15-5452-56951,51.39338,-92.37217,1477,1.1, Walleye,Trend,11623.4,7.4,37,874916825.7,21-May-19,30-Jul-19,"01-Aug-19, 29-Jul-19, 30-Jul-19, 31-Jul-19"
3,4,50-500,Birmingham L.,15-5413-55979,50.52717,-92.41983,1580,2, Walleye,Trend,267.5,3.5,6,9330207.95,,09-Aug-19,"09-Aug-19, 10-Aug-19"
3,4,50-500,Blair L.,15-4919-56922,51.37386,-93.11465,1479,1.2, Walleye,Trend,126.1,3.8,11.3,4751811.43,22-May-22,30-Aug-22,"29-Aug-22, 30-Aug-22, 31-Aug-22"
3,4,500-1500,Botsford L.,15-5970-55554,50.13856,-91.6591,1603,2.1, Walleye,Trend,1472.6,6.7,24,99070208.44,23-May-22,08-Aug-22,"08-Aug-22, 09-Aug-22, 10-Aug-22, 11-Aug-22"
3,4,50-500,Bury L.,15-6143-55885,50.43634,-91.3911,1550,1.7, Walleye,Trend,473.8,6.9,17,33271801.3,27-May-19,11-Jul-19,"08-Jul-19, 09-Jul-19, 10-Jul-19, 11-Jul-19"
3,4,1500-5000,Canyon L.,15-4470-55367,49.9888,-93.68699,1699,2.9, Walleye,Trend,1697.9,6.8,19.8,115681599.9,,06-Aug-21,"05-Aug-21, 06-Aug-21"
3,4,1500-5000,Carling L.,15-6217-56090,50.6223,-91.28022,1524,1.5, Lake Trout,Trend,1555.6,8.8,40.9,130996800.7,,30-Aug-21,"01-Sep-21, 27-Aug-21, 28-Aug-21, 29-Aug-21, 30-Aug-21, 31-Aug-21"
3,4,1500-5000,Cecil L.,15-6164-54885,49.54021,-91.40065,1569,2.3, Lake Trout,Trend,1560.8,12.4,24.4,195266138.4,"23-May-19, 25-May-22","11-Jun-19, 13-Jun-19","11-Jun-19, 12-Jun-19, 13-Jun-19, 14-Jun-19"
3,4,1500-5000,Cedar L.,15-4902-55617,50.17998,-93.16459,,,,Supplemental,2901.7,,,,,,
3,4,1500-5000,Clay L.,15-4653-55440,50.04611,-93.48572,1674,2.7,,Supplemental,2755.4,7.9,21.9,243936206.8,,,
3,4,1500-5000,Clay L.,15-4653-55440,50.04611,-93.48572,1674,2.7, Walleye,Trend,2755.4,7.9,21.9,243936206.8,21-May-19,23-Jun-19,"23-Jun-19, 24-Jun-19, 25-Jun-19"
3,4,1500-5000,Cliff L.,15-4785-55574,50.16879,-93.29998,1649,2.6, Lake Trout,Trend,2236.3,9.2,34.1,245032785.9,21-May-19,19-Jun-19,"20-Jun-19, 21-Jun-19, 22-Jun-19"
3,4,1500-5000,Cliff L.,15-4785-55574,50.16879,-93.29998,1649,2.6,,Supplemental,2236.3,9.2,34.1,245032785.9,,,
3,4,1500-5000,Coli L.,15-4589-56848,51.31536,-93.59007,1488,1.3, Walleye,Trend,2114.2,2.5,9.2,53147497.56,,22-Jun-21,"21-Jun-21, 22-Jun-21, 23-Jun-21"
3,4,1500-5000,Confederation L.,15-5210-56629,51.11521,-92.67556,1506,1.5, Lake Trout,Trend,2606.2,8.3,32.3,346466891.8,22-May-22,14-Jul-21,"14-Jul-21, 15-Jul-21, 16-Jul-21"
3,4,500-1500,Confusion L.,15-4187-56135,50.65108,-94.17888,1600,2.1, Walleye,Trend,1463,11.6,42.7,165439199.8,,07-Sep-22,"07-Sep-22, 08-Sep-22, 09-Sep-22"
3,4,500-1500,Conifer L.,15-4270-56011,50.5674,-94.03211,1614,2.3, Lake Trout,Trend,1137.9,25.3,65.8,284650285.2,,"04-Jul-22, 07-Jul-22","03-Jul-22, 04-Jul-22, 05-Jul-22, 06-Jul-22, 07-Jul-22"
3,4,50-500,Crystal L.,15-6321-55100,49.72882,-91.1675,1546,2.1, Walleye,Trend,115.8,1.9,4.6,2260999.97,25-May-22,07-Aug-22,"07-Aug-22, 08-Aug-22"
3,4,500-1500,Delaney L.,15-4250-55493,50.09299,-94.048,1707,2.8, Lake Trout,Trend,1278.1,22.8,81.4,292250401.4,26-May-22,"27-Jul-21, 29-Jul-21","26-Jul-21, 27-Jul-21, 28-Jul-21"
3,4,50-500,Eye L.,15-4642-55404,50.01584,-93.50594,1679,2.7, Walleye,Trend,130.4,4.2,7.2,5498300.19,26-May-22,27-Jul-22,"25-Jul-22, 26-Jul-22"
3,4,500-1500,Fitchie L.,15-6742-56100,50.61813,-90.53714,1465,1.3, Walleye,Trend,1147.7,4.6,19.2,50397597.83,27-May-19,19-Jul-19,"16-Jul-19, 17-Jul-19, 18-Jul-19"
3,4,50-500,Gibraltar L.,15-6378-55460,50.0521,-91.07599,1540,1.9, Walleye,Trend,109.3,2,3,2223999.94,23-May-22,12-Aug-19,"12-Aug-19, 13-Aug-19"
3,4,50-500,Gooch L.,15-6046-55042,49.69139,-91.55158,1589,2.3, Walleye,Trend,143,1.4,2.8,2024643.07,25-May-22,26-Aug-23,"26-Aug-23, 27-Aug-23, 28-Aug-23"
3,4,50-500,Grace L.,15-5349-56812,51.2872,-92.49861,1491,1.3, Walleye,Trend,475.7,4.1,10.8,19484044.59,,"09-Sep-22, 12-Sep-22","09-Sep-22, 10-Sep-22, 11-Sep-22"
3,4,1500-5000,Greenbush L.,15-7043-56488,50.95093,-90.10466,1420,0.9, Walleye,Trend,2926.6,2.1,10,60282599.31,27-May-19,13-Aug-21,"12-Aug-21, 13-Aug-21"
3,4,5000-250000,Gullrock L.,15-4567-56470,50.96114,-93.64489,1524,1.6, Walleye,Trend,6867.3,7.6,16,522948998.1,21-May-19,09-Aug-19,"09-Aug-19, 10-Aug-19"
3,4,50-500,Gustauson L.,15-5826-54970,49.62257,-91.85843,1617,2.5, Lake Trout,Trend,143.8,8.9,24,12887720.58,25-May-22,17-Jun-21,"16-Jun-21, 17-Jun-21, 18-Jun-21"
3,4,500-1500,Hailstone L.,15-5606-56722,51.20038,-92.1061,1494,1.3, Walleye,Trend,515.2,1.6,14,8763335.91,,18-Jul-22,"18-Jul-22, 19-Jul-22"
3,4,500-1500,Hammell L.,15-4269-56605,51.09368,-94.0448,1523,1.5, Lake Trout,Trend,831.4,9.6,24.4,80267801.4,,16-Aug-22,"16-Aug-22, 17-Aug-22, 18-Aug-22, 19-Aug-22"
3,4,500-1500,Hartman L.,15-5396-55107,49.74941,-92.45084,1652,2.5, Walleye,Trend,517.6,4.2,8.2,21239399.55,21-May-19,23-Jun-19,"23-Jun-19, 24-Jun-19, 25-Jun-19"
3,4,1500-5000,Indian L.,15-5965-54891,49.54834,-91.66632,1598,2.4, Walleye,Trend,4000.1,9.4,36,372503189.5,23-May-19,11-Jun-19,"11-Jun-19, 12-Jun-19, 13-Jun-19, 14-Jun-19"
3,4,1500-5000,Jeanette L.,15-5605-56599,51.0898,-92.13638,1507,1.4, Walleye,Trend,1580.7,4.3,12.5,74527601.21,,05-Aug-22,"05-Aug-22, 06-Aug-22, 07-Aug-22, 08-Aug-22, 09-Aug-22"
3,4,500-1500,Keg L.,15-4520-56490,50.99542,-93.68541,1520,1.6,,Supplemental,1100.8,7.1,15,78071723.71,21-May-19,,
3,4,1500-5000,Kukukus L.,15-5946-55139,49.7724,-91.68396,1606,2.3, Walleye,Trend,4167.7,5,19.5,206439990.2,25-May-22,05-Jul-21,"02-Jul-21, 03-Jul-21, 04-Jul-21, 05-Jul-21"
3,4,1500-5000,Lake of B.s,15-6207-55385,49.98409,-91.28781,1565,2,,State,4326,7.5,25,325004945.2,,,
3,4,50-500,Little Sandbar L.,15-6059-54782,49.45098,-91.54113,1586,2.5, Walleye,Trend,218.5,2.7,7,5850900.02,23-May-19,11-Jun-19,"11-Jun-19, 12-Jun-19, 13-Jun-19, 14-Jun-19"
3,4,5000-250000,Little Vermilion L.,15-4414-56807,51.26224,-93.83115,1498,1.3, Walleye,Trend,5489.1,3.4,8.5,191637602.1,,19-Jun-21,"17-Jun-21, 18-Jun-21, 19-Jun-21"
3,4,5000-250000,Longlegged L.,15-4172-56262,50.78395,-94.17453,1580,2, Walleye,Trend,6760.3,8.9,35.4,615479473.6,21-May-19,08-Jun-21,"08-Jun-21, 09-Jun-21, 10-Jun-21, 11-Jun-21"
3,4,5000-250000,Mameigwess L.,15-5853-54894,49.55072,-91.82545,1612,2.5, Lake Trout,Trend,5242,16.1,50,854861751.7,25-May-22,"12-Jun-19, 13-Jun-19, 14-Jun-19","11-Jun-19, 12-Jun-19, 13-Jun-19, 14-Jun-19"
3,4,1500-5000,McCrea L.,15-6908-56374,50.85869,-90.28963,1436,1, Walleye,Trend,4013.9,6.5,49.7,260875724.9,,18-Aug-21,"15-Aug-21, 16-Aug-21, 17-Aug-21"
3,4,1500-5000,Minchin L.,15-6733-56270,50.76686,-90.54351,1458,1.2, Walleye,Trend,1514.9,6.3,24.4,95453807.97,,20-Aug-22,"17-Aug-22, 18-Aug-22, 19-Aug-22"
3,4,5000-250000,Miniss L.,15-6523-56318,50.82132,-90.87326,1479,1.2, Walleye,Trend,6693.6,6,39,378857988.3,27-May-19,05-Jul-19,"05-Jul-19, 06-Jul-19, 07-Jul-19, 08-Jul-19"
3,4,5000-250000,Minnitaki L.,15-5735-55360,49.97183,-91.95802,1631,2.3,,Supplemental,17508.9,12.2,44,2128401752,,,
3,4,5000-250000,Minnitaki L.,15-5735-55360,49.97183,-91.95802,1631,2.3, Walleye,Trend,17508.9,12.2,44,2128401752,23-May-22,03-Jun-22,"01-Jun-22, 02-Jun-22, 03-Jun-22, 04-Jun-22, 05-Jun-22"
3,4,5-50,Mold L.,15-5282-55495,50.09953,-92.6059,1638,2.4, Lake Trout,Trend,48,7.3,17,3542187.36,23-May-22,26-Jul-22,"26-Jul-22, 27-Jul-22"
3,4,50-500,Mud L.,15-5802-54916,49.57403,-91.89103,1618,2.5, Walleye,Trend,128,4.7,10.3,5710499.77,25-May-22,16-Aug-19,"16-Aug-19, 17-Aug-19, 18-Aug-19"
3,4,5000-250000,Nungesser L.,15-4613-57020,51.47248,-93.53952,1477,1.1, Walleye,Trend,7417.5,4.9,15.2,366004176.3,21-May-19,"01-Aug-19, 30-Jul-19","30-Jul-19, 31-Jul-19"
3,4,1500-5000,Otatakan L.,15-5808-56326,50.85048,-91.85134,1529,1.5, Walleye,Trend,1519.7,4.7,8.5,71153298.26,,"03-Jul-21, 05-Jul-21","03-Jul-21, 04-Jul-21, 05-Jul-21"
3,4,5000-250000,Pakwash L.,15-4660-56220,50.74727,-93.50609,1552,2, Walleye,Trend,8637.9,6.8,17.4,668100018.7,21-May-19,23-Jun-19,"21-Jun-19, 22-Jun-19"
3,4,5000-250000,Pashkokogan L.,15-6895-56512,50.98287,-90.30102,1434,0.9, Walleye,Trend,5508.4,3,14.9,198191997.1,27-May-19,17-Aug-19,"17-Aug-19, 18-Aug-19"
3,4,1500-5000,Pelican L.,15-5737-55520,50.1115,-91.96123,1630,2.2, Walleye,Trend,2296.9,10.4,36,238439369.3,23-May-22,"03-Jun-22, 04-Jun-22","01-Jun-22, 02-Jun-22, 03-Jun-22, 04-Jun-22, 31-May-22"
3,4,500-1500,Penassi L.,15-6300-55346,49.95125,-91.19549,1553,2, Walleye,Trend,1446.1,6.6,27.1,95125801.85,23-May-22,22-Jun-21,"20-Jun-21, 21-Jun-21, 22-Jun-21, 23-Jun-21"
3,4,1500-5000,Perrault L.,15-4900-55708,50.29084,-93.13068,1624,2.4,,Supplemental,3302.1,9.5,24.4,314540697.9,,,
3,4,5000-250000,Pikangikum L.,15-4304-57399,51.80217,-93.99622,1465,0.9, Walleye,Trend & State,5429.6,4.6,21,268000598.9,22-May-22,,
3,4,50-500,Premier L.,15-5213-56724,51.20424,-92.69474,1498,1.4, Lake Trout,Trend,152.2,8.4,24,12845044.35,22-May-22,18-Jul-21,"17-Jul-21, 18-Jul-21"
3,4,1500-5000,Press L.,15-6090-55164,49.79986,-91.50461,1585,2.2, Walleye,Trend,3645.8,5.6,22,202602391.1,25-May-22,19-Aug-19,"16-Aug-19, 17-Aug-19, 18-Aug-19, 19-Aug-19"
3,4,5000-250000,Red L.,15-4335-56548,51.06421,-93.95704,1523,1.5, Walleye,Trend,16392.8,12.2,42,1998053907,21-May-19,13-Aug-19,"11-Aug-19, 12-Aug-19, 13-Aug-19"
3,4,5000-250000,Savant L.,15-6825-55952,50.4823,-90.42741,1460,1.4, Walleye,Trend,12524,7.9,53,951262696.1,27-May-19,15-Aug-19,"10-Aug-19, 11-Aug-19, 12-Aug-19, 13-Aug-19, 14-Aug-19"
3,4,500-1500,Selwyn L.,15-6531-54804,49.45958,-90.89168,1502,2.2, Walleye,Trend,1003.3,1.9,9.8,18203899.31,23-May-19,22-Jun-19,"19-Jun-19, 20-Jun-19, 21-Jun-19"
3,4,5000-250000,Seseganaga L.,15-6890-55500,50.06571,-90.35308,1461,1.6, Walleye,Trend,10651.1,5.6,42.3,601266411.6,27-May-19,20-Jul-19,"17-Jul-19, 18-Jul-19, 19-Jul-19"
3,4,5000-250000,"Seul, La.",15-5365-55747,50.40282,-92.47874,,, Walleye,Trend - nonrandom,134398.1,8.6,36,11534390115,,10-Jul-23,"09-Jul-23, 10-Jul-23, 11-Jul-23, 14-Jul-23, 15-Jul-23, 16-Jul-23, 17-Jul-23"
3,4,500-1500,Shabu L.,15-5045-56849,51.31424,-92.93967,1485,1.3, Walleye,Trend,709.1,4.4,13.2,31587601.76,22-May-22,25-Aug-22,"25-Aug-22, 26-Aug-22, 27-Aug-22, 28-Aug-22"
3,4,500-1500,Silcox L.,15-4741-57335,51.75362,-93.37461,1445,0.8, Walleye,Trend,873.9,3.2,6.1,28328635.25,22-May-22,14-Jul-22,"14-Jul-22, 15-Jul-22"
3,4,50-500,Silver L.,15-6881-55875,50.41174,-90.35324,1454,1.4, Walleye,Trend,152.8,2.7,10,4139207.6,27-May-19,06-Jul-19,"05-Jul-19, 06-Jul-19"
3,4,500-1500,Singapore L.,15-6244-55581,50.16413,-91.26503,1556,1.9, Walleye,Trend,592,6.3,18.8,41265001.25,23-May-22,07-Jul-19,"05-Jul-19, 06-Jul-19, 07-Jul-19"
3,4,50-500,Smye L.,15-6889-55829,50.3698,-90.34435,1457,1.4, Walleye,Trend,283.6,2.9,21.1,8163500.27,27-May-19,11-Jul-19,"08-Jul-19, 09-Jul-19, 10-Jul-19"
3,4,1500-5000,Sowden L.,15-6304-54898,49.54735,-91.20672,1545,2.3, Walleye,Trend,3739.1,6.3,18.3,234271813.3,23-May-19,"23-Jul-19, 24-Jul-19","21-Jul-19, 22-Jul-19, 23-Jul-19"
3,4,5000-250000,Sturgeon L.,15-6600-55380,49.92729,-90.89686,1506,1.9, Lake Trout,Trend,24047.8,13.6,93,2912127175,27-May-19,"06-Jul-19, 09-Jul-19, 13-Jul-19","05-Jul-19, 06-Jul-19, 08-Jul-19, 09-Jul-19, 10-Jul-19"
3,4,500-1500,Sup L.,15-4602-55724,50.30519,-93.55796,1638,2.5, Walleye,Trend,675.8,8.1,19.2,55007100.61,26-May-22,20-Jun-21,"16-Jun-21, 17-Jun-21, 18-Jun-21, 19-Jun-21, 20-Jun-21"
3,4,1500-5000,Thaddeus L.,15-5085-55575,50.17463,-92.89251,1635,2.4,,Supplemental,1566.4,8.5,16.2,132600000,,,
3,4,1500-5000,Thaddeus L.,15-5085-55575,50.17463,-92.89251,1635,2.4, Walleye,Trend,1566.4,8.5,16.2,132600000,21-May-19,13-Aug-19,"10-Aug-19, 11-Aug-19, 12-Aug-19, 13-Aug-19, 14-Aug-19"
3,4,500-1500,Tide L.,15-4305-55763,50.33775,-93.98355,1657,2.5, Walleye,Trend,1373.8,10.6,30.5,143121200,26-May-22,17-Jun-22,"15-Jun-22, 16-Jun-22"
3,4,50-500,Tom L.,15-4238-55430,50.03637,-94.06278,1718,2.9, Lake Trout,Trend,57.1,12.1,36,6800200.31,26-May-22,,
3,4,50-500,Towers L.,15-6233-55269,49.88748,-91.2871,1565,2.1, Walleye,Trend,102,10,32,10210285.28,23-May-22,,
3,4,5000-250000,Trout L.,15-4784-56717,51.19868,-93.30949,1497,1.4, Lake Trout,Trend,34518.2,13.7,47.3,4768545020,,15-Jul-22,"14-Jul-22, 15-Jul-22, 16-Jul-22, 17-Jul-22, 18-Jul-22, 19-Jul-22"
3,4,500-1500,Tully L.,15-5974-55920,50.47548,-91.63028,,, Lake Trout,Trend,1131.6,,,,,08-Jul-21,"07-Jul-21, 08-Jul-21"
3,4,5000-250000,Umfreville L.,15-3754-55732,50.32297,-94.83832,1695,2.7, Walleye,Trend,14044.9,15.7,46.3,2222671943,21-May-19,20-Jul-19,"20-Jul-19, 21-Jul-19, 22-Jul-19"
3,4,50-500,Unnamed L. (FMZ04_01),15-5752-55022,49.66803,-91.95766,1626,2.5, Walleye,Trend,64.3,2.8,5.5,1816290.24,25-May-22,27-Jul-21,26-Jul-21
3,4,500-1500,Upper Medicine Stone L.,15-4255-56385,50.89562,-94.05979,1555,1.8, Lake Trout,Trend,1076.2,15.7,41.2,168429605.6,,26-Aug-22,"26-Aug-22, 27-Aug-22, 28-Aug-22, 29-Aug-22, 30-Aug-22"
3,4,500-1500,Victoria L.,15-6048-54975,49.62381,-91.54686,1589,2.4, Lake Trout,Trend,926.2,8.9,28.1,82543383.6,25-May-22,01-Aug-19,"29-Jul-19, 30-Jul-19, 31-Jul-19"
3,4,5000-250000,Wabaskang L.,15-4880-55820,50.38864,-93.22539,1606,2.3, Walleye,Trend,6150.2,7.6,28.7,470645208.9,21-May-19,25-Jun-19,"24-Jun-19, 25-Jun-19, 26-Jun-19"
3,4,5000-250000,Wabaskang L.,15-4880-55820,50.38864,-93.22539,1606,2.3,,Supplemental,6150.2,7.6,28.7,470645208.9,,,
3,4,1500-5000,Wapesi L.,15-5464-56006,50.54216,-92.33631,1575,1.9,,State,2350.9,2,9.2,47328000,21-May-19,,
3,4,500-1500,Wavell L.,15-5209-57140,51.5779,-92.69876,1455,0.9, Walleye,Trend,805.8,9.5,23,78755000,22-May-22,26-Aug-22,"26-Aug-22, 27-Aug-22, 28-Aug-22, 29-Aug-22"
3,4,1500-5000,Wawang L.,15-6775-54775,49.42645,-90.55214,1466,2, Walleye,Trend,1962.7,6.5,26.5,131397500,,,"25-Aug-21, 26-Aug-21, 27-Aug-21"
3,4,500-1500,Whitemud L.,15-5192-56320,50.8448,-92.73259,1537,1.8, Walleye,Trend,1241.4,4.7,15.6,57701895.36,22-May-22,30-Aug-21,"30-Aug-21, 31-Aug-21"
3,4,1500-5000,Wintering L.,15-6217-55096,49.72761,-91.31415,1564,2.2, Walleye,Trend,1654.2,5.3,15.9,90534600.67,25-May-22,08-Jun-21,"08-Jun-21, 09-Jun-21, 10-Jun-21, 11-Jun-21"
3,4,1500-5000,Woman L.,15-5179-56721,51.20095,-92.75446,1498,1.4, Lake Trout,Trend,1929.4,10.2,34,197457762,22-May-22,03-Jul-22,"03-Jul-22, 04-Jul-22, 05-Jul-22, 06-Jul-22"
3,4,50-500,Wyder L.,15-3895-55970,50.51618,-94.55925,1647,2.4, Lake Trout,Trend,265.2,8.1,31,20841299.99,,07-Sep-22,"07-Sep-22, 08-Sep-22, 09-Sep-22"
3,5,50-500,Abbess L.,15-5970-53925,48.67977,-91.68384,1595,2.9, Lake Trout,Trend,134.3,13,37.2,16925999.6,,11-Aug-23,"11-Aug-23, 12-Aug-23, 13-Aug-23"
3,5,50-500,Andy L.,15-4216-54977,49.62961,-94.08984,1753,3.2, Walleye,Trend,162.7,6,14.6,9786000.37,,16-Jun-22,"13-Jun-22, 14-Jun-22, 15-Jun-22"
3,5,5000-250000,Atikwa L.,15-4602-54790,49.49768,-93.53348,1705,3.1, Lake Trout,Trend,5196.5,13.2,59.5,711189563.9,,,
3,5,50-500,Augite L.,15-4487-55234,49.8623,-93.71668,1709,2.9, Lake Trout,Trend,106.5,9.9,26,10414799.3,,19-Aug-22,"17-Aug-22, 18-Aug-22, 19-Aug-22"
3,5,1500-5000,Bad Vermilion L.,15-5236-53978,48.72571,-92.68243,1639,3.1, Walleye,Trend,1788.5,17,49.4,308226995.9,,16-Jun-21,"16-Jun-21, 17-Jun-21, 18-Jun-21"
3,5,1500-5000,Black Sturgeon L.s,15-3982-55227,49.84838,-94.36373,1771,3.2, Walleye,Trend,3070.7,8,36.6,242871992.2,,"13-Jun-23, 16-Jun-23","13-Jun-23, 14-Jun-23, 15-Jun-23, 16-Jun-23, 17-Jun-23"
3,5,500-1500,Blindfold L.,15-4100-55022,49.67003,-94.25758,1770,3.2, Walleye,Trend,504.4,3.3,16.8,16374600.17,,,
3,5,500-1500,Blindfold L.,15-4100-55022,49.67003,-94.25758,1770,3.2,,Supplemental,504.4,3.3,16.8,16374600.17,,,"19-Aug-19, 20-Aug-19, 21-Aug-19, 22-Aug-19"
3,5,50-500,Blueberry L.,15-3755-55568,50.15109,-94.74174,1717,2.8, Walleye,Trend,125.3,2.5,4.9,2600000,,06-Sep-23,"06-Sep-23, 07-Sep-23, 08-Sep-23"
3,5,500-1500,Bluffpoint L.,15-4725-54467,49.1767,-93.37447,1688,3.1, Lake Trout,Trend,503.7,10.4,38.1,54121600.55,,06-Sep-23,"06-Sep-23, 07-Sep-23, 08-Sep-23"
3,5,1500-5000,Calm L.,15-5676-54025,48.78402,-92.08944,1617,3,,Supplemental,2446.5,13.9,65.3,344845077,,28-Aug-23,"28-Aug-23, 29-Aug-23, 30-Aug-23, 31-Aug-23"
3,5,50-500,Captain Tom L.,15-5503-53695,48.47819,-92.31846,1617,3.1, Walleye,Trend,188.5,6.2,21.4,12356599.81,,27-Jun-23,"27-Jun-23, 28-Jun-23, 29-Jun-23"
3,5,1500-5000,Caviar L.,15-4431-54685,49.37469,-93.77506,1717,3.2, Walleye,Trend,3170.3,9.1,39.6,289907816.6,,11-Jul-23,"10-Jul-23, 11-Jul-23, 12-Jul-23, 13-Jul-23"
3,5,1500-5000,Clearwater West L.,15-5755-54281,49.00747,-91.98602,1618,2.9, Lake Trout,Trend,3598.8,27.2,73.2,983151001.5,,14-Aug-21,"13-Aug-21, 14-Aug-21, 15-Aug-21, 16-Aug-21"
3,5,1500-5000,Clearwater West L.,15-5755-54281,49.00747,-91.98602,1618,2.9,,Supplemental,3598.8,27.2,73.2,983151001.5,,,
3,5,1500-5000,Crooked Pine L.,15-6401-54050,48.7846,-91.09824,1530,2.6,,Supplemental,1672.9,6.1,16.2,97856195.49,,"26-Aug-19, 29-Aug-19","26-Aug-19, 27-Aug-19, 28-Aug-19"
3,5,50-500,Cross L.,15-4115-55351,49.96489,-94.23609,1745,3, Lake Trout,Trend,108.2,8.3,26.2,8656900.45,26-May-22,,
3,5,1500-5000,Crowrock L.,15-5858-54247,48.97243,-91.79738,1612,2.9, Walleye,Trend,1813,12.4,50.3,226920672.1,,"18-Jun-22, 19-Jun-22","16-Jun-22, 17-Jun-22, 18-Jun-22, 20-Jun-22, 21-Jun-22, 22-Jun-22"
3,5,500-1500,Crystal L.,15-6263-53964,48.7076,-91.27802,1557,2.8, Lake Trout,Trend,623.9,15.9,47,99948942.89,,22-Jun-22,"16-Jun-22, 17-Jun-22, 18-Jun-22, 19-Jun-22, 20-Jun-22, 21-Jun-22"
3,5,500-1500,Crystal L.,15-6263-53964,48.7076,-91.27802,1557,2.8,,Supplemental,623.9,15.9,47,99948942.89,,,
3,5,500-1500,Cygnet L.,15-3653-55394,49.99142,-94.88562,1738,3, Walleye,Trend,1317.9,4.1,11,55538597.71,,13-Jun-23,"13-Jun-23, 14-Jun-23, 15-Jun-23, 16-Jun-23, 17-Jun-23"
3,5,1500-5000,Daniels L.,15-4399-55286,49.92424,-93.85166,1716,3, Lake Trout,Trend,1629.8,23.1,78.6,369461411.7,26-May-22,,
3,5,5000-250000,Dinorwic L.,15-5320-54970,49.62051,-92.56305,1659,2.7, Walleye,Trend,5007.5,3.8,10,192124519.7,24-May-22,14-Jul-21,"16-Jul-21, 17-Jul-21, 18-Jul-21, 19-Jul-21"
3,5,1500-5000,Dogpaw L.,15-4342-54693,49.36962,-93.90523,1726,3.2, Lake Trout,Trend,1966.9,10.3,24.4,205423206.3,,10-Jul-23,"13-Jul-23, 14-Jul-23, 15-Jul-23, 16-Jul-23"
3,5,500-1500,Dore L.,15-5124-54968,49.61582,-92.83074,1671,2.7, Walleye,Trend,965.2,8.7,24.4,86808597.03,24-May-22,14-Jul-21,"14-Jul-21, 15-Jul-21, 16-Jul-21, 17-Jul-21, 18-Jul-21"
3,5,5000-250000,Dryberry L.,15-4395-54864,49.54722,-93.85008,1726,3.2, Lake Trout,Trend,10238.6,22.1,105.5,2410005042,,27-Jun-23,"22-Jun-23, 27-Jun-23, 28-Jun-23, 29-Jun-23, 30-Jun-23"
3,5,5000-250000,Eagle L.,15-4950-55030,49.66881,-93.27879,1690,2.9, Walleye,Trend,31706.4,7.2,32.8,2279936305,24-May-22,"03-Jul-22, 06-Jul-22","03-Jul-22, 04-Jul-22, 06-Jul-22, 07-Jul-22, 08-Jul-22"
3,5,500-1500,Edward L.,15-4606-55329,49.9464,-93.55602,1689,2.8, Walleye,Trend,534.3,3.4,7.9,18230800.93,26-May-22,19-Jun-22,"18-Jun-22, 19-Jun-22, 20-Jun-22, 21-Jun-22"
3,5,500-1500,Elbow L.,15-6460-54008,48.74861,-91.02265,,,,Supplemental,567.4,,,,,,"15-Jul-22, 16-Jul-22, 17-Jul-22, 18-Jul-22, 19-Jul-22"
3,5,500-1500,Elbow L.,15-6460-54008,48.74861,-91.02265,,,,Supplemental,567.4,,,,,,"03-Aug-22, 04-Aug-22, 05-Aug-22, 06-Aug-22, 07-Aug-22"
3,5,500-1500,Elbow L.,15-6460-54008,48.74861,-91.02265,,,,Supplemental,567.4,,,,,26-Aug-22,"26-Aug-22, 27-Aug-22, 28-Aug-22, 29-Aug-22"
3,5,1500-5000,Eltrut L.,15-5429-54280,49.00154,-92.41658,1637,3, Walleye,Trend,2269.8,3.7,12.2,88851797.53,,19-Sep-23,"19-Sep-23, 20-Sep-23"
3,5,1500-5000,Eva L.,15-6340-53970,48.71744,-91.15971,1542,2.7,,Supplemental,1726.2,13.2,54.9,230036834.6,,,
3,5,500-1500,Factor L.,15-5688-53944,48.70208,-92.0698,1614,3,,Supplemental,640,14.5,49.4,93358454.4,,,
3,5,50-500,Farley L.,15-6317-54251,48.96092,-91.20674,1543,2.6, Walleye,Trend,68.2,1.8,4.8,1254771.33,,,
3,5,50-500,Godson L.,15-5172-54948,49.60903,-92.76425,1668,2.7, Walleye,Trend,259.5,3,6.1,7848000.18,24-May-22,22-Jun-21,"21-Jun-21, 22-Jun-21, 23-Jun-21"
3,5,500-1500,Grey Trout L.,15-5670-54304,49.0294,-92.07951,1624,2.9, Lake Trout,Trend,1333.2,17,48.8,220626008.3,,18-Aug-21,"16-Aug-21, 17-Aug-21, 18-Aug-21, 19-Aug-21"
3,5,500-1500,Grey Trout L.,15-5670-54304,49.0294,-92.07951,1624,2.9,,Supplemental,1333.2,17,48.8,220626008.3,,,
3,5,50-500,Holmes L.,15-5587-54132,48.87064,-92.19604,,,,Supplemental,147.8,,,,,,
3,5,50-500,Horseshoe L.,15-5833-54665,49.34622,-91.84931,1613,2.6, Lake Trout,Trend,103.6,5.4,19.9,5589452.98,,,
3,5,50-500,Jim L.,15-6008-53925,48.67964,-91.63064,,,,Supplemental,200.2,,,,,,
3,5,1500-5000,Kaiashkons L.,15-4710-54335,49.05496,-93.39573,1684,3.1, Lake Trout,Trend,2025.2,24.5,58,526039523.9,,28-Aug-23,"22-Aug-23, 23-Aug-23, 24-Aug-23, 25-Aug-23, 26-Aug-23, 27-Aug-23"
3,5,5000-250000,Kakagi L.,15-4390-54514,49.24073,-93.83253,1712,3.2, Lake Trout,Trend & State,11061.7,20.6,58,2304254283,,25-Jul-23,"25-Jul-23, 26-Jul-23, 27-Jul-23, 28-Jul-23, 29-Jul-23"
3,5,50-500,Kawene L.,15-6315-54021,48.7611,-91.20623,,,,Supplemental,113.5,5.9,27,6715805.74,,,
3,5,50-500,Kawene L.,15-6315-54021,48.7611,-91.20623,,,,Supplemental,113.5,5.9,27,6715805.74,,09-Jul-18,"07-Jul-18, 08-Jul-18, 09-Jul-18, 10-Jul-18, 11-Jul-18"
3,5,50-500,Kawene L.,15-6315-54021,48.7611,-91.20623,,,,Supplemental,113.5,5.9,27,6715805.74,,30-Jul-18,"01-Aug-18, 02-Aug-18, 30-Jul-18, 31-Jul-18"
3,5,50-500,Kawene L.,15-6315-54021,48.7611,-91.20623,,,,Supplemental,113.5,5.9,27,6715805.74,,,"18-Aug-18, 19-Aug-18, 20-Aug-18"
3,5,1500-5000,Lawrence L.,15-4729-54570,49.27504,-93.36566,1691,3.1, Walleye,Trend,1877.3,22.2,76.2,415295403.4,24-May-22,30-Jun-23,"26-Jun-23, 27-Jun-23, 28-Jun-23, 29-Jun-23"
3,5,50-500,Little Brown L.,15-6040-53925,48.67828,-91.58378,,,,Supplemental,57.9,,,,,,
3,5,50-500,Little Gordon L.,15-4452-55268,49.89284,-93.76337,1711,2.9, Lake Trout,Trend,178.6,17.3,46.7,30447998.66,,18-Aug-22,"16-Aug-22, 17-Aug-22, 18-Aug-22, 19-Aug-22"
3,5,1500-5000,Little Turtle L.,15-5221-54041,48.78047,-92.68563,1640,3.1, Walleye,Trend,2305.7,3.6,9.2,80099997.88,,20-Jun-21,"20-Jun-21, 21-Jun-21, 22-Jun-21"
3,5,1500-5000,Loonhaunt L.,15-4632-54287,49.002,-93.50355,1686,3.2, Walleye,Trend,2095.4,11.3,47.3,233955192.9,,13-Aug-23,"09-Aug-23, 10-Aug-23, 11-Aug-23, 12-Aug-23"
3,5,5000-250000,Lower Manitou L.,15-5023-54567,49.27811,-92.94807,1672,3, Lake Trout,Trend & State,8871.7,19.9,81,1648675130,24-May-22,12-Sep-23,"09-Sep-23, 10-Sep-23, 11-Sep-23"
3,5,500-1500,Manion L.,15-5502-54176,48.90942,-92.31834,1630,3, Walleye,Trend,1138.5,5.6,12,67082400.22,,30-Jul-23,"30-Jul-23, 31-Jul-23"
3,5,50-500,Marion L.,15-6298-53936,48.68405,-91.23491,,,,Supplemental,446,,,,,,
3,5,1500-5000,Marmion L.,15-6065-54144,48.89674,-91.51896,1599,2.9, Walleye,Trend,3960,6.2,24.4,246709732,,19-Sep-23,"22-Sep-23, 23-Sep-23, 24-Sep-23"
3,5,50-500,McCaulay L.,15-5752-53953,48.70827,-91.97711,1611,3,,Supplemental,465.2,20.8,50,96755455.7,,,
3,5,1500-5000,Mercutio L.,15-6383-54085,48.80983,-91.09871,1533,2.6, Walleye,Trend,1668.8,4.9,15.3,72181900.21,,06-Aug-21,"05-Aug-21, 06-Aug-21, 07-Aug-21, 08-Aug-21, 09-Aug-21"
3,5,500-1500,Mount L.,15-5600-54290,49.01314,-92.18708,1628,2.9, Walleye,Trend,1016.7,12.8,37.2,130599714.3,,25-Jul-23,"25-Jul-23, 26-Jul-23, 27-Jul-23"
3,5,50-500,Narrow L.,15-5913-53921,48.67618,-91.75619,,,,Supplemental,51.4,,,,,,
3,5,1500-5000,Nora L.,15-5842-54507,49.19934,-91.85993,1611,2.7,,Supplemental,1612.7,16.2,55.2,258001208.2,,,
3,5,1500-5000,Nora L.,15-5842-54507,49.19934,-91.85993,1611,2.7, Walleye,Trend,1612.7,16.2,55.2,258001208.2,,08-Sep-23,"06-Sep-23, 07-Sep-23, 08-Sep-23"
3,5,1500-5000,Nym L.,15-6136-53934,48.68333,-91.42721,1577,2.9,,Supplemental,1792.5,8.7,37.2,159914694.4,,,
3,5,5000-250000,"of the Woods, L.",15-3726-54565,49.32857,-94.50117,,, Walleye,Trend - nonrandom,219338.4,,,,15-May-18,,
3,5,5000-250000,"of the Woods, L.",15-3726-54565,49.32857,-94.50117,,, Walleye,Trend - nonrandom,219338.4,,,,13-May-18,,
3,5,5000-250000,"of the Woods, L.",15-3726-54565,49.32857,-94.50117,,, Walleye,Trend - nonrandom,219338.4,,,,,"10-Sep-21, 14-Sep-21, 22-Sep-21, 28-Sep-21, 30-Aug-21","01-Sep-21, 10-Sep-21, 11-Sep-21, 14-Sep-21, 15-Sep-21, 22-Sep-21, 23-Sep-21, 24-Sep-21, 25-Sep-21, 26-Aug-21, 26-Sep-21, 27-Aug-21, 27-Sep-21, 28-Aug-21, 30-Aug-21, 31-Aug-21"
3,5,5000-250000,"of the Woods, L.",15-3726-54565,49.32857,-94.50117,,, Walleye,Trend - nonrandom,219338.4,,,,,26-Aug-18,"26-Aug-18, 27-Aug-18, 28-Aug-18, 29-Aug-18, 30-Aug-18, 31-Aug-18"
3,5,5000-250000,"of the Woods, L.",15-3726-54565,49.32857,-94.50117,,, Walleye,Trend - nonrandom,219338.4,,,,,20-Aug-18,"21-Aug-18, 22-Aug-18, 23-Aug-18, 24-Aug-18"
3,5,5000-250000,"of the Woods, L.",15-3726-54565,49.32857,-94.50117,,, Walleye,Trend - nonrandom,219338.4,,,,,08-Aug-18,"08-Aug-18, 09-Aug-18, 10-Aug-18, 11-Aug-18, 12-Aug-18"
3,5,5000-250000,"of the Woods, L.",15-3726-54565,49.32857,-94.50117,,, Walleye,Trend - nonrandom,219338.4,,,,15-May-18,11-Sep-19,"09-Sep-19, 10-Sep-19, 11-Sep-19"
3,5,5000-250000,"of the Woods, L.",15-3726-54565,49.32857,-94.50117,,, Walleye,Trend - nonrandom,219338.4,,,,,29-Aug-19,"27-Aug-19, 28-Aug-19"
3,5,5000-250000,"of the Woods, L.",15-3726-54565,49.32857,-94.50117,,, Walleye,Trend - nonrandom,219338.4,,,,,25-Aug-19,"24-Aug-19, 25-Aug-19"
3,5,5000-250000,"of the Woods, L.",15-3726-54565,49.32857,-94.50117,,, Walleye,Trend - nonrandom,219338.4,,,,,"22-Aug-19, 23-Aug-19","22-Aug-19, 23-Aug-19"
3,5,50-500,Off L.,15-4396-54165,48.90206,-93.83011,1686,3.1, Walleye,Trend,445.5,4.9,12.2,22486100.14,,10-Aug-23,"10-Aug-23, 11-Aug-23, 12-Aug-23"
3,5,50-500,Old Man L.,15-4124-55428,50.03672,-94.22218,1730,2.9, Walleye,Trend,160.8,6.1,23,9607499.85,26-May-22,17-Jul-23,"17-Jul-23, 18-Jul-23, 19-Jul-23"
3,5,5000-250000,Otukamamoan L.,15-5100-54230,48.96084,-92.89431,1656,3.1, Walleye,Trend,5026.2,16.9,53.7,873020147.3,,09-Jul-23,"09-Jul-23, 10-Jul-23, 11-Jul-23, 12-Jul-23"
3,5,5-50,Owl L.,15-5940-53910,48.66661,-91.72276,,,,Supplemental,28.6,,,,,,
3,5,500-1500,Pelicanpouch L.,15-3662-55240,49.85536,-94.87014,1753,3.1, Walleye,Trend,1125.2,3.6,9.2,39916800.7,,13-Jun-23,"13-Jun-23, 14-Jun-23, 15-Jun-23, 16-Jun-23, 17-Jun-23"
3,5,500-1500,Perch L.,15-5849-53998,48.74848,-91.83244,1608,3, Walleye,Trend,760.7,5.9,24.7,41506500.67,,24-Sep-23,"22-Sep-23, 23-Sep-23, 24-Sep-23"
3,5,500-1500,Pettit L.,15-5537-54222,48.94535,-92.26647,1630,3,,Supplemental,1113,9,25,101181525.1,,,
3,5,50-500,Plum L.,15-4127-55299,49.90988,-94.21523,1753,3.1, Walleye,Trend,73.6,4.7,12,3482010.22,26-May-22,10-Sep-23,"10-Sep-23, 11-Sep-23"
3,5,500-1500,Populus L.,15-4557-54838,49.50585,-93.59764,1709,3.1, Walleye,Trend,694.1,8.2,39,54579196.73,,,
3,5,5000-250000,Rainy L.,15-4877-53939,48.72662,-93.13074,,, Walleye,Trend - nonrandom,68280.5,,,,23-May-18,"09-Jul-18, 18-Jul-18, 21-Jun-18, 24-Jul-18","04-Jul-18, 05-Jul-18, 06-Jul-18, 07-Jul-18, 08-Jul-18, 09-Jul-18, 17-Jul-18, 18-Jul-18, 19-Jul-18, 20-Jul-18, 21-Jul-18, 22-Jul-18, 22-Jun-18, 23-Jun-18, 24-Jun-18, 25-Jun-18, 26-Jun-18, 27-Jun-18"
3,5,1500-5000,Rainy R.,15-3765-54101,48.84651,-94.68436,,,,Supplemental,3955,,,,,,"01-Aug-18, 05-Jul-18, 06-Jul-18, 07-Jul-18, 08-Jul-18, 09-Jul-18, 10-Aug-18, 11-Aug-18, 12-Aug-18, 13-Aug-18, 14-Aug-18, 17-Jul-18, 18-Jul-18, 19-Jul-18, 20-Jul-18, 21-Jul-18, 21-Jun-18, 22-Aug-18, 22-Jul-18, 22-Jun-18, 23-Aug-18, 23-Jul-18, 23-Jun-18, 24-Aug-18, 24-Jun-18, 25-Aug-18, 25-Jun-18, 26-Aug-18, 26-Jun-18, 27-Aug-18, 27-Jun-18, 28-Aug-18, 31-Jul-18"
3,5,1500-5000,Rainy R.,15-3765-54101,48.84651,-94.68436,,,,Supplemental,3955,,,,,,"09-Sep-19, 10-Sep-19, 11-Sep-19"
3,5,1500-5000,Rainy R.,15-3765-54101,48.84651,-94.68436,,,,Supplemental,3955,,,,,,"12-Sep-19, 13-Sep-19, 14-Sep-19"
3,5,1500-5000,Rainy R.,15-3765-54101,48.84651,-94.68436,,,,Supplemental,3955,,,,,,"01-Aug-18, 04-Jul-18, 05-Jul-18, 06-Jul-18, 07-Jul-18, 08-Jul-18, 09-Jul-18, 10-Aug-18, 11-Aug-18, 11-Sep-18, 12-Aug-18, 12-Sep-18, 13-Aug-18, 13-Sep-18, 14-Aug-18, 14-Sep-18, 15-Sep-18, 16-Sep-18, 17-Jul-18, 17-Sep-18, 18-Jul-18, 19-Jul-18, 20-Jul-18, 21-Jul-18, 21-Jun-18, 22-Aug-18, 22-Jul-18, 22-Jun-18, 23-Aug-18, 23-Jul-18, 23-Jun-18, 24-Aug-18, 24-Jun-18, 25-Aug-18, 25-Jun-18, 26-Aug-18, 26-Jun-18, 27-Aug-18, 27-Jun-18, 28-Aug-18, 31-Jul-18"
3,5,50-500,Rawn Re.,15-6076-54043,48.78507,-91.53701,1600,2.9, Walleye,Trend,209.6,4.2,16,8937599.72,,26-Jul-21,"26-Jul-21, 27-Jul-21, 28-Jul-21"
3,5,500-1500,Rugby L.,15-5026-55337,49.95675,-92.95825,1662,2.6, Walleye,Trend,1020.5,3.4,7.6,33469601.77,23-May-22,14-Jul-23,"14-Jul-23, 15-Jul-23, 16-Jul-23, 17-Jul-23"
3,5,500-1500,Rugby L.,15-5026-55337,49.95675,-92.95825,1662,2.6,,Supplemental,1020.5,3.4,7.6,33469601.77,,,"09-Sep-19, 10-Sep-19, 11-Sep-19, 12-Sep-19"
3,5,500-1500,Sandbeach L.,15-5586-54227,48.95915,-92.20128,1627,2.9, Walleye,Trend,666.6,20.7,54.9,141070505.2,,25-Jul-23,"25-Jul-23, 26-Jul-23, 27-Jul-23, 28-Jul-23"
3,5,1500-5000,Sandford L.,15-5955-54404,49.10844,-91.68457,1600,2.7, Lake Trout,Trend,2912.1,36.8,114.7,1075185560,,,
3,5,50-500,Sapawe L.,15-6218-54036,48.77264,-91.34185,,,,Supplemental,481.2,,,,,,"12-Jul-23, 13-Jul-23, 14-Jul-23"
3,5,50-500,Sapawe L.,15-6218-54036,48.77264,-91.34185,,,,Supplemental,481.2,,,,,"30-Jul-23, 31-Jul-23","01-Aug-23, 30-Jul-23, 31-Jul-23"
3,5,50-500,Sapawe L.,15-6218-54036,48.77264,-91.34185,,,,Supplemental,481.2,,,,,,"24-Aug-23, 25-Aug-23, 26-Aug-23"
3,5,5000-250000,Sawbill B.,15-6135-54228,48.96026,-91.44366,1582,2.8, Walleye,Trend,5516.4,6.3,30.5,353070543.2,,19-Sep-23,"19-Sep-23, 20-Sep-23, 21-Sep-23, 22-Sep-23"
3,5,50-500,Schistose L.,15-4562-54445,49.15469,-93.60163,1698,3.1, Walleye,Trend,338.3,16.6,53,57220203.34,,12-Aug-23,"09-Aug-23, 10-Aug-23, 11-Aug-23, 12-Aug-23"
3,5,500-1500,Scotch L.,15-6345-54482,49.15786,-91.17121,1533,2.4, Walleye,Trend,1254.4,9.2,27.8,118827195.3,,20-Jul-21,"19-Jul-21, 20-Jul-21"
3,5,5000-250000,Shoal L.,15-3541-54903,49.54735,-94.94029,,, Walleye,Trend - nonrandom,25011,10,30,2510469072,,24-Aug-23,"22-Aug-23, 23-Aug-23, 24-Aug-23, 25-Aug-23, 26-Aug-23, 27-Aug-23"
3,5,500-1500,Shrub L.,15-4351-55357,49.97099,-93.89782,1715,2.9, Lake Trout,Trend,550.3,9,26,50283001.1,26-May-22,30-Jun-23,"27-Jun-23, 28-Jun-23, 29-Jun-23, 30-Jun-23"
3,5,500-1500,Steep Rock L.,15-5979-54059,48.79669,-91.6697,1605,2.9,,Supplemental,618.3,4.8,14,29739077.82,,21-Aug-23,"21-Aug-23, 22-Aug-23, 23-Aug-23"
3,5,1500-5000,Stormy L.,15-5503-54708,49.39447,-92.34669,1643,2.7, Lake Trout,Trend,3432.5,12.6,36.6,434985452.6,24-May-22,27-Jul-21,"26-Jul-21, 27-Jul-21, 28-Jul-21"
3,5,500-1500,Tadpole L.,15-4785-54790,49.47038,-93.29066,1692,3, Lake Trout,Trend,521.8,9.6,36,50976002.03,,,
3,5,500-1500,Thunder L.,15-5241-55137,49.77882,-92.66332,1660,2.6, Walleye,Trend,1118.3,11.1,23.5,124653004.3,24-May-22,07-Sep-23,"06-Sep-23, 07-Sep-23, 08-Sep-23, 09-Sep-23"
3,5,500-1500,Turtle L.,15-5770-54220,48.95315,-91.94003,1616,2.9, Walleye,Trend,1208.5,6.3,18.3,76327105.3,,"05-Aug-21, 07-Aug-21","05-Aug-21, 06-Aug-21"
3,5,50-500,Union L.,15-6493-54089,48.82795,-90.97053,1508,2.5, Walleye,Trend,278.5,3.8,14,10575302.02,,19-Aug-21,"17-Aug-21, 18-Aug-21, 19-Aug-21"
3,5,5000-250000,Upper Manitou L.,15-5149-54725,49.40161,-92.77724,1667,2.9," Lake Trout, Walleye",Trend,5310.4,17.2,56,892869256.4,24-May-22,06-Sep-23,"06-Sep-23, 07-Sep-23, 08-Sep-23"
3,5,500-1500,Vista L.,15-4943-54343,49.06245,-93.08016,1671,3.1, Lake Trout,Trend,556.6,13.1,68.9,73687502.15,24-May-22,24-Aug-23,"22-Aug-23, 23-Aug-23, 24-Aug-23, 25-Aug-23, 26-Aug-23"
3,5,5000-250000,Wabigoon L.,15-5203-55093,49.73222,-92.72928,1665,2.6, Walleye,Trend,10365.8,6.5,15,674349995,24-May-22,14-Jul-21,"14-Jul-21, 15-Jul-21, 16-Jul-21"
3,5,5000-250000,Wabigoon L.,15-5203-55093,49.73222,-92.72928,1665,2.6,,Supplemental,10365.8,6.5,15,674349995,,,
3,5,1500-5000,Wapageisi L.,15-5472-54633,49.32443,-92.35219,1643,2.8, Lake Trout,Trend,1838.4,11,46,202921114.4,24-May-22,"17-Jun-22, 19-Jun-22","15-Jun-22, 16-Jun-22, 17-Jun-22, 18-Jun-22, 19-Jun-22"
3,5,50-500,Warner L.,15-5654-53962,48.71612,-92.11263,,,,Supplemental,150.9,,,,,,
3,5,50-500,"WE66-23, L. (DRY-NL-651)",15-5684-54631,49.31937,-92.05985,1626,2.7, Walleye,Trend,113.6,2.3,5.2,2523099.88,,24-Aug-23,"22-Aug-23, 23-Aug-23, 24-Aug-23"
3,5,1500-5000,West Jackfish L.,15-4512-54200,48.93632,-93.66605,1686,3.2, Walleye,Trend,1941.2,5.3,18.3,103344068.1,,09-Aug-23,"09-Aug-23, 10-Aug-23, 11-Aug-23, 12-Aug-23"
3,5,5000-250000,White Otter L.,15-5816-54402,49.09057,-91.86311,1615,2.8, Walleye,Trend,8467.2,22.1,56.4,1823029031,,22-Aug-23,"22-Aug-23, 23-Aug-23, 24-Aug-23, 25-Aug-23, 26-Aug-23"
3,5,50-500,Whitefish L.,15-3532-55170,49.78718,-95.03457,1752,3.1, Walleye,Trend,216.4,7,20.1,15400000,,25-Jul-23,"25-Jul-23, 26-Jul-23, 27-Jul-23"
3,5,1500-5000,Winnange L.,15-4495-55118,49.75528,-93.70447,1712,3, Walleye,Trend,2438.8,27.2,115.2,715768020.1,,,
3,5,50-500,Winnipeg R.,15-3467-55666,50.24183,-95.15402,,, Walleye,Trend - nonrandom,62.9,,,,,"09-Aug-23, 30-Jul-23","01-Aug-23, 09-Aug-23, 10-Aug-23, 11-Aug-23, 12-Aug-23, 13-Aug-23, 14-Aug-23, 27-Jul-23, 28-Jul-23, 29-Jul-23, 30-Jul-23, 31-Jul-23"
3,6,50-500,Addie L.,15-6910-53378,48.16665,-90.42954,1465,2.6,,Supplemental,117,2.1,3.7,2457542.27,,,
3,6,5-50,Arnott L.,16-3577-54402,49.09594,-88.95538,,, Brook Trout,Trend,39.4,,,,"09-Jul-19, 23-May-19",09-Jul-19,06-Jul-19
3,6,1500-5000,Arrow L.,15-7025-53379,48.15855,-90.26498,1455,2.6, Lake Trout,Trend,3234.4,17.8,54.9,589963157.3,18-May-18,19-Jun-18,"20-Jun-18, 21-Jun-18, 22-Jun-18, 23-Jun-18, 24-Jun-18, 25-Jun-18"
3,6,1500-5000,Arrow L.,15-7025-53379,48.15855,-90.26498,1455,2.6,,Supplemental,3234.4,17.8,54.9,589963157.3,,,
3,6,1500-5000,Athelstane L.,15-7050-54058,48.77457,-90.20796,1438,2.3,,Supplemental,1764.9,9.4,32.9,169801595.4,,,
3,6,1500-5000,Athelstane L.,15-7050-54058,48.77457,-90.20796,1438,2.3, Walleye,Trend,1764.9,9.4,32.9,169801595.4,21-May-18,21-Jun-18,"20-Jun-18, 21-Jun-18, 22-Jun-18"
3,6,50-500,Atik L.,15-7097-53434,48.21094,-90.17813,1445,2.5,,Supplemental,69.6,,,,18-May-18,,
3,6,500-1500,Batwing L.,15-7091-53688,48.44209,-90.17355,1441,2.4, Walleye,Trend,614.6,6.6,14.9,41197200.21,18-May-18,22-Jun-18,"20-Jun-18, 21-Jun-18, 22-Jun-18, 23-Jun-18"
3,6,500-1500,Beatty L.,16-4566-55070,49.71792,-87.60467,1360,1.3, Lake Trout,Trend,651.5,6.1,27.5,42657298.59,20-May-18,,"10-Aug-18, 11-Aug-18, 12-Aug-18, 13-Aug-18"
3,6,5-50,Beck L.,16-3582-53944,48.68681,-88.92751,,, Brook Trout,Trend,9.8,,,,,23-Jun-19,"23-Jun-19, 24-Jun-19, 25-Jun-19"
3,6,1500-5000,Bedivere L.,15-6578-54141,48.86818,-90.84937,1488,2.4, Walleye,Trend,2225.6,5.2,12.5,117114393.2,18-May-18,11-Aug-18,"09-Aug-18, 10-Aug-18, 11-Aug-18, 12-Aug-18"
3,6,5-50,Bigger L.,16-3738-53990,48.73271,-88.7152,,, Brook Trout,Trend,12,,,,,,
3,6,5-50,Bisect L.,16-3706-53956,48.70281,-88.75896,1429,2.9, Brook Trout,Trend,34.9,5.9,13.1,1740500.03,,24-Jul-19,"22-Jul-19, 23-Jul-19"
3,6,1500-5000,Black Sturgeon L.,16-3634-54687,49.35824,-88.87211,1424,2.3, Walleye,Trend,4874.4,18.5,52.4,944498981.9,21-May-18,01-Aug-18,"01-Aug-18, 30-Jul-18, 31-Jul-18"
3,6,50-500,Blunder L.,15-7020-53669,48.42444,-90.26943,1446,2.4, Walleye,Trend,125.6,2.6,6.7,3343314.65,18-May-18,02-Aug-18,"01-Aug-18, 30-Jul-18, 31-Jul-18"
3,6,50-500,Blunder L.,15-7020-53669,48.42444,-90.26943,1446,2.4,,Supplemental,125.6,2.6,6.7,3343314.65,,,
3,6,500-1500,Burchell L.,15-6747-53842,48.58834,-90.62706,1470,2.4,,Supplemental,1044.9,24.3,74.7,249463786.2,,,
3,6,500-1500,Burchell L.,15-6747-53842,48.58834,-90.62706,1470,2.4, Lake Trout,Trend,1044.9,24.3,74.7,249463786.2,18-May-18,26-Jun-18,"24-Jun-18, 25-Jun-18, 26-Jun-18"
3,6,500-1500,Castle L.,16-3663-55543,50.1269,-88.87219,1351,1.2, Lake Trout,Trend,611.4,9.6,36,58874168.25,20-May-18,13-Aug-18,"10-Aug-18, 11-Aug-18, 12-Aug-18, 13-Aug-18"
3,6,5-50,Castle L.,15-7176-53418,48.19412,-90.07267,1442,2.5,,Supplemental,37.2,,,,,,
3,6,50-500,Chambers L.,15-7002-53661,48.41885,-90.29282,,,,Supplemental,185.3,,,,,,
3,6,50-500,Circle L.,16-3534-54692,49.35977,-89.01858,1422,2.2, Walleye,Trend,386.2,5.2,15,20175999.26,21-May-18,01-Aug-18,"01-Aug-18, 30-Jul-18, 31-Jul-18"
3,6,5-50,Clegge L.,16-3718-54003,48.74428,-88.7448,,, Brook Trout,Trend,20.4,,,,,09-Aug-19,"08-Aug-19, 09-Aug-19, 10-Aug-19"
3,6,5-50,Cliff L.,16-3700-54335,49.04188,-88.77821,1436,2.6, Lake Trout,Trend,41.1,5.4,12,2316600.12,,21-Jul-21,"13-Jul-21, 14-Jul-21"
3,6,5-50,Cliff L.,16-3700-54335,49.04188,-88.77821,1436,2.6,,Supplemental,41.1,5.4,12,2316600.12,,,
3,6,50-500,Cox L.,16-4013-54584,49.27195,-88.35773,,,,Supplemental,217.5,,,,,26-Jul-21,"26-Jul-21, 27-Jul-21, 28-Jul-21"
3,6,50-500,Cox L.,16-4013-54584,49.27195,-88.35773,,,,Supplemental,217.5,,,,,,"16-Aug-21, 17-Aug-21"
3,6,50-500,Cry L.,16-3557-55322,49.92643,-89.01587,1376,1.5, Lake Trout,Trend,244.9,22.2,47.6,54767401.2,20-May-18,,"14-Aug-18, 15-Aug-18, 16-Aug-18, 17-Aug-18"
3,6,50-500,Dakota L.,15-7039-53810,48.55075,-90.23783,1444,2.4,,Supplemental,118.4,,,,,,
3,6,5000-250000,"des Mille Lacs, La.",15-6827-54135,48.87653,-90.51282,1446,2.2,,Supplemental,24510.9,6.8,24.4,1639670499,,,
3,6,5000-250000,"des Mille Lacs, La.",15-6827-54135,48.87653,-90.51282,1446,2.2, Walleye,Trend,24510.9,6.8,24.4,1639670499,21-May-18,12-Jul-18,"08-Jul-18, 09-Jul-18, 10-Jul-18, 11-Jul-18"
3,6,50-500,Disraeli L.,16-3551-54440,49.13422,-88.982,,, Lake Trout,Trend,433.2,10.6,32,45959117.34,"15-May-19, 24-May-19",04-Jul-19,"04-Jul-19, 05-Jul-19, 06-Jul-19, 07-Jul-19, 08-Jul-19"
3,6,5000-250000,Dog L.,16-3132-54041,48.77812,-89.51281,1446,2.6, Walleye,Trend,14552.4,29.6,117,4382072799,21-May-18,18-Jul-18,"17-Jul-18, 18-Jul-18, 19-Jul-18, 20-Jul-18, 21-Jul-18"
3,6,50-500,Eileen L.,16-3589-54402,49.1049,-88.94168,,, Brook Trout,Trend,65.9,,,,"09-Jul-19, 23-May-19, 24-May-19",09-Jul-19,07-Jul-19
3,6,5-50,Elbow L.,16-3724-53943,48.6909,-88.73401,1428,2.9, Brook Trout,Trend,14.9,6.7,19,990270.09,,27-Aug-18,"27-Aug-18, 28-Aug-18, 29-Aug-18"
3,6,50-500,Elbow L.,16-4433-55531,50.1298,-87.7934,1350,1, Walleye,Trend,316.6,8.8,38.4,28292000.61,20-May-18,20-Aug-18,"17-Aug-18, 18-Aug-18, 19-Aug-18"
3,6,50-500,Elevation L.,15-6577-53565,48.3436,-90.87116,1499,2.6,,Supplemental,104.2,,,,,,
3,6,50-500,Elm L.,16-3710-54376,49.0786,-88.76521,,,,Supplemental,64.9,,,,,,
3,6,500-1500,Empire L.,15-6979-55108,49.71999,-90.24726,1451,1.8, Walleye,Trend,681.4,6,23.5,40625998.54,20-May-18,26-Jun-18,"24-Jun-18, 25-Jun-18, 26-Jun-18"
3,6,5-50,Fall L.,16-3800-54060,48.79728,-88.63329,,, Brook Trout,Trend,12.4,,,,,,
3,6,50-500,Fallingsnow L.,16-2930-53355,48.14185,-89.7849,1455,2.7, Lake Trout,Trend,144.8,13.4,33,19393711.72,18-May-18,10-Jul-18,"08-Jul-18, 09-Jul-18, 10-Jul-18"
3,6,50-500,Fallingsnow L.,16-2930-53355,48.14185,-89.7849,1455,2.7,,Supplemental,144.8,13.4,33,19393711.72,,,
3,6,5-50,Forbes L.,16-3647-54369,49.07171,-88.85291,,, Brook Trout,Trend,9,,,,,18-Jul-19,16-Jul-19
3,6,1500-5000,Frazer L.,16-3884-54562,49.24882,-88.52882,1428,2.4, Walleye,Trend,1967.9,5.3,12.2,103584504,20-May-18,11-Jul-18,"08-Jul-18, 09-Jul-18, 10-Jul-18"
3,6,1500-5000,Greenwater L.,15-6904-53837,48.57454,-90.42999,1453,2.4, Lake Trout,Trend,3407.2,18.1,54.9,553914320.5,18-May-18,17-Jul-18,"17-Jul-18, 18-Jul-18, 19-Jul-18"
3,6,1500-5000,Greenwater L.,15-6904-53837,48.57454,-90.42999,1453,2.4,,Supplemental,3407.2,18.1,54.9,553914320.5,,,
3,6,50-500,Greenwich L.,16-3638-54070,48.80501,-88.85841,1436,2.8,,Supplemental,478.6,19.6,61,93766843.24,,,
3,6,50-500,Greenwich L.,16-3638-54070,48.80501,-88.85841,1436,2.8, Lake Trout,Trend,478.6,19.6,61,93766843.24,21-May-18,02-Aug-18,"01-Aug-18, 02-Aug-18, 31-Jul-18"
3,6,50-500,Grouse L.,15-6812-53794,48.54321,-90.54489,1464,2.4, Lake Trout,Trend,86.9,15.7,38.4,13706100.31,18-May-18,,"16-Aug-18, 17-Aug-18, 18-Aug-18, 19-Aug-18"
3,6,5-50,Hansi L.,16-4013-54300,49.02274,-88.34887,,, Brook Trout,Trend,5.7,,,,,,09-Jul-19
3,6,5-50,Hilma L.,16-3752-53979,48.72363,-88.6958,1426,2.9, Brook Trout,Trend,39.1,,,,,,
3,6,1500-5000,Holinshead L.,16-3069-55034,49.65403,-89.68153,1419,1.9, Walleye,Trend,1957.5,5.3,16.8,119477906.9,20-May-18,27-Aug-18,"27-Aug-18, 28-Aug-18"
3,6,50-500,Holly L.,15-7111-54802,49.43642,-90.08177,1434,2, Walleye,Trend,302.6,2.9,10,8850800.65,20-May-18,02-Aug-18,"01-Aug-18, 30-Jul-18, 31-Jul-18"
3,6,50-500,Home L.,15-6539-53616,48.39187,-90.91955,1503,2.6,,Supplemental,59.3,,,,,,
3,6,5-50,Hunters L.s,16-3724-53935,48.68849,-88.73973,1428,2.9, Brook Trout,Trend,27.9,4,19,1108620.7,,,
3,6,50-500,Huronian L.,15-6641-53950,48.68758,-90.77235,1482,2.5, Lake Trout,Trend,361.4,10.8,38,39067321.58,18-May-18,06-Jul-18,"04-Jul-18, 05-Jul-18, 06-Jul-18, 07-Jul-18"
3,6,50-500,Huronian L.,15-6641-53950,48.68758,-90.77235,1482,2.5,,Supplemental,361.4,10.8,38,39067321.58,,,
3,6,500-1500,Icarus L.,15-6814-53436,48.22011,-90.57186,1474,2.6,,Supplemental,645,11.7,48,75635093.57,,,
3,6,500-1500,Icarus L.,15-6814-53436,48.22011,-90.57186,1474,2.6, Lake Trout,Trend,645,11.7,48,75635093.57,18-May-18,11-Aug-18,"09-Aug-18, 10-Aug-18"
3,6,50-500,Innes L.,16-3750-54094,48.82849,-88.70686,1429,2.8, Lake Trout,Trend,220.4,8.3,42,18343191.49,,06-Sep-18,"04-Sep-18, 05-Sep-18, 06-Sep-18"
3,6,50-500,Innes L.,16-3750-54094,48.82849,-88.70686,1429,2.8,,Supplemental,220.4,8.3,42,18343191.49,,,
3,6,50-500,Jolly L.,16-3207-54488,49.16785,-89.45932,1429,2.3, Walleye,Trend,100.9,2.1,5,2034899.94,21-May-18,27-Jun-18,"25-Jun-18, 26-Jun-18, 27-Jun-18"
3,6,50-500,Kabaigon L.,15-7019-53947,48.6744,-90.25679,,,,Supplemental,138.2,,,,,,15-Sep-20
3,6,50-500,Kabaigon L.,15-7019-53947,48.6744,-90.25679,,,,Supplemental,138.2,,,,,,"13-Jul-21, 14-Jul-21"
3,6,50-500,Kabaigon L.,15-7019-53947,48.6744,-90.25679,,,,Supplemental,138.2,,,,,30-Jul-21,"26-Jul-21, 27-Jul-21, 28-Jul-21, 29-Jul-21"
3,6,50-500,Kabaigon L.,15-7019-53947,48.6744,-90.25679,,,,Supplemental,138.2,,,,,20-Aug-21,"17-Aug-21, 18-Aug-21, 19-Aug-21"
3,6,50-500,Kamikau L.,15-6986-53540,48.30997,-90.3213,1451,2.5,,Supplemental,156.3,6.6,19,10275558.46,,,
3,6,50-500,Kamikau L.,15-6986-53540,48.30997,-90.3213,1451,2.5, Lake Trout,Trend,156.3,6.6,19,10275558.46,18-May-18,21-Aug-18,"19-Aug-18, 20-Aug-18"
3,6,500-1500,Kaministiquia R.,16-3359-53629,48.39204,-89.21879,,,,Supplemental,642.8,,,,,,"21-Sep-20, 22-Sep-20, 23-Sep-20, 24-Sep-20"
3,6,1500-5000,Kashabowie L.,15-6913-53983,48.71886,-90.39423,1448,2.3,,Supplemental,2163.3,7.4,35,169430409.4,,,
3,6,1500-5000,Kashabowie L.,15-6913-53983,48.71886,-90.39423,1448,2.3, Walleye,Trend,2163.3,7.4,35,169430409.4,21-May-18,14-Jun-18,"12-Jun-18, 13-Jun-18, 14-Jun-18, 15-Jun-18"
3,6,500-1500,Kearns L.,15-7163-54881,49.50753,-90.01676,1432,1.9, Walleye,Trend,931.6,5.4,15.3,48918602.18,20-May-18,16-Aug-18,"13-Aug-18, 14-Aug-18, 15-Aug-18"
3,6,500-1500,Kekekuab L.,15-7067-53777,48.51593,-90.20803,1442,2.4,,Supplemental,545.9,1.2,3,6645207.82,,,
3,6,50-500,Little Athelstane L.,15-7023-54024,48.74472,-90.24681,,,,Supplemental,223.1,,,,,,
3,6,5-50,Little Hilma L.,16-3761-53954,48.7079,-88.68404,,,,Supplemental,17.3,,,,,,
3,6,50-500,Little Moraine L.,16-3657-54310,49.01989,-88.83585,1436,2.6,,Supplemental,234.1,13.2,32,30973474.07,,,
3,6,50-500,Little Moraine L.,16-3657-54310,49.01989,-88.83585,1436,2.6, Lake Trout,Trend,234.1,13.2,32,30973474.07,,27-Aug-21,"26-Aug-21, 27-Aug-21, 28-Aug-21"
3,6,5-50,Long L.,16-3725-53994,48.73714,-88.73431,,, Brook Trout,Trend,10.3,,,,,,
3,6,50-500,Lost L.,16-4080-53975,48.72577,-88.25103,1389,2.8, Brook Trout,Trend,168.6,3,12,5005509.03,20-May-18,02-Aug-18,"01-Aug-18, 31-Jul-18"
3,6,1500-5000,Lower Shebandowan L.,15-7089-53866,48.61245,-90.17507,1443,2.4,,Supplemental,2309.4,3.9,12.2,91101557.01,18-May-18,"12-Jun-18, 16-Jun-18","12-Jun-18, 13-Jun-18, 14-Jun-18, 15-Jun-18"
3,6,5-50,MacIntosh L.,16-3752-54002,48.74456,-88.69785,1427,2.9, Brook Trout,Trend,48.4,,,,,,
3,6,5-50,MacIntosh L.,16-3752-54002,48.74456,-88.69785,1427,2.9,,Supplemental,48.4,,,,,,
3,6,50-500,Mackenzie L.,16-3699-53994,48.73581,-88.76982,1431,2.9,,Supplemental,53.7,,,,,,
3,6,50-500,Mackenzie L.,16-3699-53994,48.73581,-88.76982,1431,2.9, Brook Trout,Trend,53.7,,,,,01-Sep-19,"29-Jul-19, 30-Jul-19, 31-Jul-19"
3,6,50-500,Maggotte L.,16-3237-55525,50.10119,-89.46517,1388,1.4, Walleye,Trend,115.3,7.4,24,8783799.89,20-May-18,24-Jul-18,"22-Jul-18, 23-Jul-18, 24-Jul-18, 25-Jul-18"
3,6,5-50,Magone L.,16-3477-53867,48.61432,-89.06171,,, Brook Trout,Trend,26.4,3.9,10,1038724.81,,10-Jul-18,"10-Jul-18, 11-Jul-18"
3,6,5-50,Marks L.,16-2901-53647,48.4031,-89.83696,1442,2.5, Brook Trout,Trend,39.4,3.6,13.9,1427183.07,,23-Jul-18,"23-Jul-18, 24-Jul-18"
3,6,5-50,Marks L.,16-2901-53647,48.4031,-89.83696,1442,2.5,,Supplemental,39.4,3.6,13.9,1427183.07,,,
3,6,50-500,McGrath L.,15-7023-53650,48.40684,-90.26696,,,,Supplemental,333.9,,,,,,
3,6,1500-5000,Middle Shebandowan L.,15-7026-53901,48.64559,-90.26705,1443,2.4,,Supplemental,1799.1,9.7,25,165549377.8,,12-Jun-18,"12-Jun-18, 13-Jun-18, 14-Jun-18, 15-Jun-18"
3,6,5-50,Miner L.,16-3803-54067,48.80311,-88.62951,1424,2.8,,Supplemental,5.2,,,,,,
3,6,50-500,Moraine L.,16-3644-54282,48.98836,-88.85198,1437,2.7,,Supplemental,280.2,,,,,,
3,6,500-1500,Mowe L.,15-6672-53552,48.33174,-90.74281,1487,2.6,,Supplemental,620.6,11.4,33,70933704.04,,,
3,6,500-1500,Mowe L.,15-6672-53552,48.33174,-90.74281,1487,2.6, Lake Trout,Trend,620.6,11.4,33,70933704.04,18-May-18,29-Aug-18,"27-Aug-18, 28-Aug-18, 29-Aug-18"
3,6,500-1500,Muskrat L.,16-3593-54568,49.25292,-88.94318,1429,2.4, Walleye,Trend,503,4,7.6,2024.32,21-May-18,31-Jul-19,"29-Jul-19, 30-Jul-19"
3,6,50-500,Myrt L.,15-6681-53680,48.44354,-90.7278,1484,2.5,,Supplemental,275.4,,,,,,
3,6,5-50,Nalla L.,16-3680-53921,48.6695,-88.79215,1431,2.9,,Supplemental,46.3,8.3,21,4058700.22,,,
3,6,5-50,Nalla L.,16-3680-53921,48.6695,-88.79215,1431,2.9, Brook Trout,Trend,46.3,8.3,21,4058700.22,,14-Aug-18,"13-Aug-18, 14-Aug-18"
3,6,500-1500,Nelson L.,15-6828-53703,48.46221,-90.52889,1464,2.5,,Supplemental,653.1,5.7,11.8,40350300.04,,,
3,6,,"Nipigon, L.",16-3921-55210,49.82331,-88.51794,,, Walleye,Trend - nonrandom,449676.2,,,,,,"14-Sep-20, 15-Sep-20, 16-Sep-20, 17-Sep-20"
3,6,,"Nipigon, L.",16-3921-55210,49.82331,-88.51794,,, Walleye,Trend - nonrandom,449676.2,,,,,,"06-Jul-18, 07-Jul-18, 07-Sep-18, 08-Jul-18, 08-Sep-18, 09-Aug-18, 09-Jul-18, 10-Aug-18, 10-Jul-18, 10-Sep-18, 11-Aug-18, 11-Sep-18, 12-Aug-18, 12-Sep-18, 13-Aug-18, 14-Aug-18, 18-Jul-18, 19-Jul-18, 19-Jun-18, 20-Jun-18, 21-Jun-18, 22-Jun-18, 23-Aug-18, 23-Jun-18, 24-Aug-18, 24-Jun-18, 25-Aug-18, 25-Jul-18, 26-Aug-18, 26-Jul-18, 27-Aug-18, 27-Jul-18, 28-Aug-18, 28-Jul-18, 29-Jul-18, 30-Jul-18"
3,6,,"Nipigon, L.",16-3921-55210,49.82331,-88.51794,,, Walleye,Trend - nonrandom,449676.2,,,,,,"07-Aug-19, 08-Aug-19, 09-Aug-19, 09-Jul-19, 10-Aug-19, 10-Jul-19, 10-Sep-19, 11-Aug-19, 11-Jul-19, 11-Sep-19, 12-Jul-19, 12-Sep-19, 13-Jul-19, 13-Sep-19, 14-Sep-19, 17-Jun-19, 18-Jun-19, 19-Jun-19, 20-Jun-19, 21-Aug-19, 21-Jun-19, 22-Aug-19, 22-Jun-19, 23-Aug-19, 23-Jul-19, 24-Aug-19, 24-Jul-19, 25-Aug-19, 25-Jul-19, 26-Jul-19, 27-Jul-19"
3,6,5-50,Nolan L.,16-3742-54014,48.75422,-88.71122,1428,2.9,,Supplemental,23.2,,,,,,
3,6,5000-250000,Northern Light L.,15-6723-53466,48.24446,-90.6759,1482,2.6,,Supplemental,6622.1,8.4,39.7,577063157.4,,,
3,6,5000-250000,Northern Light L.,15-6723-53466,48.24446,-90.6759,1482,2.6, Walleye,Trend,6622.1,8.4,39.7,577063157.4,18-May-18,12-Aug-18,"10-Aug-18, 11-Aug-18, 12-Aug-18, 13-Aug-18"
3,6,1500-5000,Obonga L.,16-3346-55390,49.97411,-89.3113,1384,1.5, Walleye,Trend,3730.3,16.1,71.7,604849365.5,20-May-18,22-Aug-18,"20-Aug-18, 21-Aug-18"
3,6,50-500,Oliver L.,16-3081-53489,48.26566,-89.58774,1476,2.9,,Supplemental,196,,,,,,
3,6,500-1500,Oskawe L.,16-4000-54670,49.34929,-88.37581,1413,2.3,,Supplemental,563.7,6.2,18,34925820.54,,,"18-Aug-21, 19-Aug-21, 23-Aug-21"
3,6,500-1500,Oskawe L.,16-4000-54670,49.34929,-88.37581,1413,2.3,,Supplemental,563.7,6.2,18,34925820.54,,26-Jul-21,"26-Jul-21, 27-Jul-21, 28-Jul-21"
3,6,5000-250000,Pakashkan L.,15-6981-54703,49.39128,-90.27892,1439,2, Walleye,Trend,5176.7,4.1,21.4,194221099.5,20-May-18,21-Jul-18,"17-Jul-18, 18-Jul-18, 19-Jul-18, 20-Jul-18"
3,6,5-50,Penassen L.s,16-3488-53829,48.58443,-89.04505,1447,3, Brook Trout,Trend,41.2,2.7,14,1103654.57,,"06-Jul-18, 09-Jul-18","04-Jul-18, 05-Jul-18"
3,6,5-50,Penassen L.s,16-3488-53829,48.58443,-89.04505,1447,3,,Supplemental,41.2,2.7,14,1103654.57,,07-Jul-18,"07-Jul-18, 08-Jul-18"
3,6,50-500,Pringle L.,16-3708-54345,49.05233,-88.76841,1435,2.6, Lake Trout,Trend,179.3,10.2,29,18295555.29,,21-Jun-21,"21-Jun-21, 22-Jun-21, 23-Jun-21"
3,6,50-500,Pringle L.,16-3708-54345,49.05233,-88.76841,1435,2.6,,Supplemental,179.3,10.2,29,18295555.29,,,
3,6,50-500,Purdom L.,16-3964-54451,49.15261,-88.4217,1433,2.6, Brook Trout,Trend,244.5,3.2,8.2,7875200.31,20-May-18,18-Jul-18,"16-Jul-18, 17-Jul-18, 18-Jul-18"
3,6,50-500,Randolph L.,16-3610-55699,50.27741,-88.96094,1339,1, Brook Trout,Trend,126.1,7.8,15.4,9933498.87,20-May-18,18-Jul-18,"18-Jul-18, 19-Jul-18, 20-Jul-18"
3,6,50-500,Redfox L.,15-6569-53648,48.4187,-90.88119,1499,2.6,,Supplemental,61,,,,,,
3,6,50-500,Ross L.,15-6528-53582,48.36006,-90.93755,1505,2.7,,Supplemental,304.8,,,,,,
3,6,500-1500,Rudge L.,15-6659-53963,48.69703,-90.73502,1477,2.4,,Supplemental,501.1,8.1,33,40605123.3,,,
3,6,500-1500,Rudge L.,15-6659-53963,48.69703,-90.73502,1477,2.4, Lake Trout,Trend,501.1,8.1,33,40605123.3,18-May-18,08-Jul-18,"08-Jul-18, 09-Jul-18, 10-Jul-18, 11-Jul-18"
3,6,500-1500,Sandstone L.,15-7053-53459,48.23175,-90.24029,1448,2.5, Walleye,Trend,729.9,7.3,23.8,68269602.67,18-May-18,26-Jun-18,"26-Jun-18, 27-Jun-18, 28-Jun-18"
3,6,500-1500,Sandstone L.,15-7053-53459,48.23175,-90.24029,1448,2.5,,Supplemental,729.9,7.3,23.8,68269602.67,,,
3,6,50-500,Savanne L.,15-7128-54128,48.83265,-90.09804,1435,2.3,,Supplemental,365,2.5,4,9335345.21,,17-Jul-18,"17-Jul-18, 18-Jul-18, 19-Jul-18, 20-Jul-18"
3,6,50-500,Savanne L.,15-7128-54128,48.83265,-90.09804,1435,2.3,,Supplemental,365,2.5,4,9335345.21,,,"09-Aug-18, 10-Aug-18, 11-Aug-18, 12-Aug-18"
3,6,50-500,Savanne L.,15-7128-54128,48.83265,-90.09804,1435,2.3,,Supplemental,365,2.5,4,9335345.21,,05-Sep-18,"27-Aug-18, 28-Aug-18, 29-Aug-18"
3,6,5-50,Scarp L.,16-3803-54156,48.88246,-88.63394,,,,Supplemental,17.4,,,,,,
3,6,5000-250000,Shebandowan L.s,15-6988-53913,48.64304,-90.30157,1444,2.4,,Supplemental,5971.7,6.1,36.6,362115459.1,,,
3,6,5000-250000,Shebandowan L.s,15-6988-53913,48.64304,-90.30157,1444,2.4, Walleye,Trend,5971.7,6.1,36.6,362115459.1,,"12-Jun-18, 14-Jun-18, 15-Jun-18, 16-Jun-18","12-Jun-18, 13-Jun-18, 14-Jun-18, 15-Jun-18"
3,6,500-1500,Sparkling L.,15-7031-55216,49.81424,-90.17712,1448,1.8, Walleye,Trend,1221.8,9.7,30.5,122801997.6,20-May-18,22-Jun-18,"20-Jun-18, 21-Jun-18, 22-Jun-18"
3,6,50-500,Squeers L.,15-6804-53764,48.51628,-90.55746,1466,2.5,,Supplemental,369.6,11.5,33.6,44171500.7,,06-Jul-18,"04-Jul-18, 05-Jul-18"
3,6,50-500,Squeers L.,15-6804-53764,48.51628,-90.55746,1466,2.5,,Supplemental,369.6,11.5,33.6,44171500.7,,22-Jul-18,"22-Jul-18, 23-Jul-18"
3,6,50-500,Squeers L.,15-6804-53764,48.51628,-90.55746,1466,2.5,,Supplemental,369.6,11.5,33.6,44171500.7,,,"14-Aug-18, 15-Aug-18, 16-Aug-18"
3,6,50-500,Squeers L.,15-6804-53764,48.51628,-90.55746,1466,2.5,,Supplemental,369.6,11.5,33.6,44171500.7,,06-Sep-18,"04-Sep-18, 05-Sep-18, 06-Sep-18, 10-Sep-18"
3,6,50-500,Squeers L.,15-6804-53764,48.51628,-90.55746,1466,2.5,,Supplemental,369.6,11.5,33.6,44171500.7,,,"05-Jul-19, 06-Jul-19, 07-Jul-19, 08-Jul-19, 09-Jul-19, 10-Jul-19, 11-Jul-19"
3,6,50-500,Squeers L.,15-6804-53764,48.51628,-90.55746,1466,2.5,,Supplemental,369.6,11.5,33.6,44171500.7,,,"01-Aug-19, 29-Jul-19, 30-Jul-19, 31-Jul-19"
3,6,50-500,Squeers L.,15-6804-53764,48.51628,-90.55746,1466,2.5,,Supplemental,369.6,11.5,33.6,44171500.7,,25-Aug-19,"22-Aug-19, 23-Aug-19, 24-Aug-19"
3,6,50-500,Squeers L.,15-6804-53764,48.51628,-90.55746,1466,2.5,,Supplemental,369.6,11.5,33.6,44171500.7,,,"12-Aug-19, 13-Aug-19, 14-Aug-19, 15-Aug-19"
3,6,50-500,Squeers L.,15-6804-53764,48.51628,-90.55746,1466,2.5,,Supplemental,369.6,11.5,33.6,44171500.7,,15-Aug-21,"12-Aug-21, 13-Aug-21, 14-Aug-21"
3,6,50-500,Squeers L.,15-6804-53764,48.51628,-90.55746,1466,2.5,,Supplemental,369.6,11.5,33.6,44171500.7,,23-Aug-22,"22-Aug-22, 23-Aug-22"
3,6,50-500,Squeers L.,15-6804-53764,48.51628,-90.55746,1466,2.5,,Supplemental,369.6,11.5,33.6,44171500.7,,23-Aug-23,"21-Aug-23, 22-Aug-23, 23-Aug-23"
3,6,50-500,Stetham L.,15-6708-53937,48.67442,-90.68295,1473,2.4,,Supplemental,228.5,7.5,27,17192840.17,,,
3,6,50-500,Stetham L.,15-6708-53937,48.67442,-90.68295,1473,2.4, Lake Trout,Trend,228.5,7.5,27,17192840.17,18-May-18,23-Jul-18,"21-Jul-18, 22-Jul-18, 23-Jul-18, 24-Jul-18"
3,6,50-500,Sunbeam L.,15-6885-53406,48.19223,-90.4631,1466,2.6,,Supplemental,86.5,,,,,,
3,6,50-500,Swallow L.,15-6983-53701,48.45519,-90.31935,,,,Supplemental,374.8,,,,,,
3,6,50-500,Tilly L.,15-6508-53878,48.62935,-90.9475,1506,2.6,,Supplemental,403.5,9.1,31,36848168.12,,,
3,6,50-500,Tilly L.,15-6508-53878,48.62935,-90.9475,1506,2.6, Lake Trout,Trend,403.5,9.1,31,36848168.12,18-May-18,23-Jul-18,"22-Jul-18, 23-Jul-18, 24-Jul-18"
3,6,50-500,Tinto L.,15-7029-53799,48.54084,-90.25014,1444,2.4, Lake Trout,Trend,159,8.7,30,13877554.14,18-May-18,22-Jul-18,"22-Jul-18, 23-Jul-18, 24-Jul-18"
3,6,50-500,Tinto L.,15-7029-53799,48.54084,-90.25014,1444,2.4,,Supplemental,159,8.7,30,13877554.14,,,
3,6,500-1500,Titmarsh L.,15-6832-53585,48.35538,-90.52995,1467,2.5,,Supplemental,968.3,13.6,49.4,130492003.7,,,
3,6,500-1500,Titmarsh L.,15-6832-53585,48.35538,-90.52995,1467,2.5, Lake Trout,Trend,968.3,13.6,49.4,130492003.7,18-May-18,17-Aug-18,"15-Aug-18, 16-Aug-18, 17-Aug-18, 18-Aug-18"
3,6,50-500,Trout L.,15-6642-53574,48.34586,-90.79178,1491,2.6,,Supplemental,51.9,,,,,,
3,6,50-500,Twinhouse L.,15-6587-53594,48.3689,-90.85668,1498,2.6,,Supplemental,104.7,5.3,15,5548221.48,,,
3,6,50-500,Unknown L.,16-3744-54268,48.98106,-88.72206,1434,2.7, Brook Trout,Trend,74.6,7.7,25,5751693.39,21-May-18,,"24-Jul-18, 25-Jul-18"
3,6,5-50,Upper Hunters L.,16-3723-53954,48.69995,-88.73578,1428,2.9, Brook Trout,Trend,27.2,1.8,8.2,498713.22,,29-Aug-18,"27-Aug-18, 28-Aug-18, 29-Aug-18, 30-Aug-18"
3,6,1500-5000,Upper Shebandowan L.,15-6867-53877,48.63351,-90.44608,1454,2.4,,Supplemental,1903.6,6.4,37,109786588,18-May-18,"14-Jun-18, 15-Jun-18","12-Jun-18, 13-Jun-18, 14-Jun-18, 15-Jun-18"
3,6,50-500,Walotka L.,16-3483-54344,49.04481,-89.07437,1436,2.6, Lake Trout,Trend,93.9,9.8,23,9506000.19,21-May-18,06-Jul-18,"04-Jul-18, 05-Jul-18, 06-Jul-18"
3,6,50-500,Walotka L.,16-3483-54344,49.04481,-89.07437,1436,2.6,,Supplemental,93.9,9.8,23,9506000.19,,,
3,6,500-1500,Waweig L.,16-3500-55543,50.12945,-89.09663,1362,1.2, Lake Trout,Trend,1151.8,15.2,42.7,175918051.8,20-May-18,07-Jul-18,"04-Jul-18, 05-Jul-18, 06-Jul-18"
3,6,50-500,Weewullee L.,16-4332-55499,50.09338,-87.9311,1353,1.1, Brook Trout,Trend,55.2,15.4,45,8510270.57,20-May-18,23-Jul-18,"22-Jul-18, 23-Jul-18"
3,6,1500-5000,Whitefish L.,16-2773-53446,48.22119,-90.00085,1437,2.5, Walleye,Trend,2871.3,2,6.4,60300000,18-May-18,06-Sep-18,"04-Sep-18, 05-Sep-18, 06-Sep-18"
3,6,1500-5000,Whitefish L.,16-2773-53446,48.22119,-90.00085,1437,2.5,,Supplemental,2871.3,2,6.4,60300000,,,
3,6,5-50,Wideman L.,16-3699-53936,48.68394,-88.76817,1430,2.9, Brook Trout,Trend,29.5,4.6,12,1370825.23,,21-Jun-19,"19-Jun-19, 20-Jun-19, 21-Jun-19"
3,6,5-50,Wiggins L.,16-3738-54079,48.81279,-88.71842,1430,2.8,,Supplemental,23.1,,,,,,
3,6,50-500,Wye L.,15-6550-53632,48.40446,-90.90487,1502,2.6,,Supplemental,77.5,,,,,,
3,6,50-500,Yellowhammer L.,15-6896-53457,48.23741,-90.44997,1464,2.6,,Supplemental,189,,,,,,
3,7,50-500,Ault L.,16-4544-54237,48.96646,-87.62369,,, Brook Trout,Trend,103,,,,,,
3,7,1500-5000,Barbara L.,16-4420-54651,49.34384,-87.80103,1364,1.9, Lake Trout,Trend,2348,14,54.9,329108650.6,,25-Aug-21,"25-Aug-21, 26-Aug-21, 27-Aug-21, 28-Aug-21, 30-Aug-21, 31-Aug-21"
3,7,50-500,Big Duck L.,16-4802-54273,49.00063,-87.27033,,, Brook Trout,Trend,224,,,,12-Jun-22,11-Jul-21,"08-Jul-21, 09-Jul-21, 10-Jul-21, 11-Jul-21"
3,7,5-50,Bigamy L.,16-4457-54868,49.53574,-87.75902,1366,1.6, Brook Trout,Trend,36.3,2.4,10,873848.89,,13-Jul-21,"13-Jul-21, 14-Jul-21"
3,7,50-500,Buckaday L.,16-4450-54254,48.98064,-87.75228,1341,2.3, Brook Trout,Trend,94.6,7.1,33.6,7632500,,17-Aug-22,"17-Aug-22, 18-Aug-22, 19-Aug-22"
3,7,1500-5000,Burrows L.,16-5188-55331,49.9523,-86.73837,1336,0.7, Walleye,Trend,1758.5,2.9,18.3,51077703.1,,08-Jul-22,"06-Jul-22, 07-Jul-22, 08-Jul-22, 09-Jul-22, 10-Jul-22"
3,7,500-1500,Cairngorm L.,16-5042-54260,48.99187,-86.93716,1255,1.9, Lake Trout,Trend,699.6,14.7,61,151718700,,,
3,7,50-500,Catlonite L.,16-4995-54471,49.17841,-87.00698,1286,1.7, Brook Trout,Trend,325.7,11,35.1,35882000,12-Jun-22,08-Aug-21,"08-Aug-21, 11-Aug-21, 12-Aug-21"
3,7,50-500,Cavell L.,16-4881-55533,50.14754,-87.15817,1339,0.6, Brook Trout,Trend,83.1,0.5,1.7,401515.53,,,
3,7,1500-5000,Chipman L.,16-5538-55350,49.98361,-86.23982,1317,0.7, Walleye,Trend,2700.8,14.7,55.7,389156880,,10-Sep-23,"06-Sep-23, 07-Sep-23, 08-Sep-23, 09-Sep-23, 10-Sep-23, 11-Sep-23, 12-Sep-23"
3,7,50-500,Diablo L.,16-5058-54157,48.89364,-86.91714,,, Brook Trout,Trend,107,,,,,,
3,7,50-500,Jason L.,16-4741-54101,48.84579,-87.35303,,, Brook Trout,Trend,55,,,,,,
3,7,1500-5000,Kenogamisis L.,16-5087-55041,49.70602,-86.85844,1342,0.8, Walleye,Trend,4250.5,1.9,9.2,79138802.72,02-Sep-18,27-Aug-18,"27-Aug-18, 28-Aug-18, 29-Aug-18, 30-Aug-18, 31-Aug-18"
3,7,50-500,Kilgour L.,16-4348-54546,49.24343,-87.89394,1372,2.1, Lake Trout,Trend,95.9,8.1,23.2,7921800,,26-Aug-23,"22-Aug-23, 23-Aug-23, 24-Aug-23, 25-Aug-23, 26-Aug-23"
3,7,1500-5000,Killala L.,16-5341-54366,49.07862,-86.52877,1257,1.7, Lake Trout,Trend,2516.3,19.9,92,501835552.6,,,
3,7,500-1500,Klotz L.,16-5818-55170,49.80202,-85.86278,1302,0.9, Walleye,Trend,786.2,7.8,19.8,64747800,,16-Jun-23,"12-Jun-23, 13-Jun-23, 14-Jun-23, 15-Jun-23, 16-Jun-23"
3,7,5000-250000,Long L.,16-5079-54800,49.47507,-86.89059,1319,1.2, Lake Trout,Trend,13498.6,39.2,186.1,5025596800,,22-Aug-23,"22-Aug-23, 23-Aug-23, 24-Aug-23, 25-Aug-23, 26-Aug-23"
3,7,50-500,Louise L.,16-4793-54217,48.94242,-87.28084,1274,2.1, Brook Trout,Trend,54.3,5.2,14,2826227.99,,,
3,7,1500-5000,McKay L.,16-5406-54956,49.6134,-86.43808,1309,1, Lake Trout,Trend,3155.6,9.4,48.8,294370400,,13-Jul-23,"11-Jul-23, 13-Jul-23, 14-Jul-23, 16-Jul-23, 17-Jul-23, 25-Jul-23, 26-Jul-23, 27-Jul-23"
3,7,5000-250000,Onaman L.,16-4688-55390,50.00783,-87.44852,1349,0.9, Walleye,Trend,11061.8,2.2,18.9,238436005.2,,19-Jul-21,"10-Jul-21, 18-Jul-21, 19-Jul-21, 20-Jul-21"
3,7,1500-5000,Pagwachuan L.,16-5657-55074,49.71758,-86.08862,1305,0.9, Lake Trout,Trend,2674,19,53.9,503506063.5,,26-Aug-23,"23-Aug-23, 24-Aug-23, 25-Aug-23, 26-Aug-23, 27-Aug-23, 28-Aug-23"
3,7,500-1500,Parks L.,16-4548-54782,49.45125,-87.64326,1355,1.6, Walleye,Trend,1337.8,2.8,21.4,44097200,,07-Sep-21,"07-Sep-21, 08-Sep-21, 09-Sep-21"
3,7,50-500,South Beatty L.,16-4747-54847,49.52071,-87.3487,1343,1.4, Walleye,Trend,285.8,2.6,5.9,7453084.25,,,"05-Aug-21, 06-Aug-21, 07-Aug-21"
3,7,50-500,Stingray L.,16-4888-54320,49.04258,-87.15365,,, Brook Trout,Trend,92,,,,,28-Jun-23,"27-Jun-23, 28-Jun-23, 29-Jun-23"
3,7,50-500,Whitesand L.,16-4720-54109,48.84703,-87.38162,,, Brook Trout,Trend,269,,,,,,
3,7,50-500,Wig L.,16-4824-54701,49.38507,-87.24311,1325,1.5, Walleye,Trend,411.7,3.2,9.8,14928000.22,,,
3,7,1500-5000,Wildgoose L.,16-4882-55089,49.72631,-87.17505,1350,0.9, Walleye,Trend,1717.1,3.6,15.9,62586000,,20-Jun-21,"20-Jun-21, 21-Jun-21, 22-Jun-21, 23-Jun-21, 24-Jun-21"
3,7,1500-5000,Wintering L.,16-4802-54759,49.43486,-87.28556,1332,1.4, Walleye,Trend,1709.4,4.8,36.6,79929600,,,
3,7,5-50,Y L.,16-5311-54861,49.52868,-86.57058,1309,1.1, Brook Trout,Trend,30.8,8.9,24,2746555.09,,,