BsM_Cycle,Region,FMZ,waterbodyID,lakeName,BsM_ProjectName,Target Species,lat,long,dateSample,DD5 8110,Air Temp 8110,Lake Selection,surfaceArea,meanDepth,maxDepth,lakeVolume,yearSample,monthSample,daySample,Temperature/DO Sample Dates,Large and Small Mesh Netting Sample Dates
3,NA,5,15-6218-54036,Sapawe L.,NA,,48.77264,-91.34185,,,,Supplemental,481.2,,,,2023,7,30,30-Jul-23,"01-Aug-23, 30-Jul-23, 31-Jul-23"
3,NA,4,15-4250-55493,Delaney L.,NA, Lake Trout,50.09299,-94.048,26-May-22,1707,2.8,Trend,1278.1,22.8,81.4,292250401.4,2021,7,27,27-Jul-21,"26-Jul-21, 27-Jul-21, 28-Jul-21"
3,NA,5,15-6401-54050,Crooked Pine L.,NA,,48.7846,-91.09824,,1530,2.6,Supplemental,1672.9,6.1,16.2,97856195.49,2019,8,26,26-Aug-19,"26-Aug-19, 27-Aug-19, 28-Aug-19"
3,NA,4,15-6304-54898,Sowden L.,NA, Walleye,49.54735,-91.20672,23-May-19,1545,2.3,Trend,3739.1,6.3,18.3,234271813.3,2019,7,23,23-Jul-19,"21-Jul-19, 22-Jul-19, 23-Jul-19"
3,NA,5,15-3726-54565,"of the Woods, L.",NA, Walleye,49.32857,-94.50117,,,,Trend - nonrandom,219338.4,,,,2019,8,22,22-Aug-19,"22-Aug-19, 23-Aug-19"
3,NA,5,15-5858-54247,Crowrock L.,NA, Walleye,48.97243,-91.79738,,1612,2.9,Trend,1813,12.4,50.3,226920672.1,2022,6,18,18-Jun-22,"16-Jun-22, 17-Jun-22, 18-Jun-22, 20-Jun-22, 21-Jun-22, 22-Jun-22"
3,NA,5,15-5472-54633,Wapageisi L.,NA, Lake Trout,49.32443,-92.35219,24-May-22,1643,2.8,Trend,1838.4,11,46,202921114.4,2022,6,17,17-Jun-22,"15-Jun-22, 16-Jun-22, 17-Jun-22, 18-Jun-22, 19-Jun-22"
3,NA,6,15-6867-53877,Upper Shebandowan L.,NA,,48.63351,-90.44608,18-May-18,1454,2.4,Supplemental,1903.6,6.4,37,109786588,2018,6,14,14-Jun-18,"12-Jun-18, 13-Jun-18, 14-Jun-18, 15-Jun-18"
3,NA,5,15-3982-55227,Black Sturgeon L.s,NA, Walleye,49.84838,-94.36373,,1771,3.2,Trend,3070.7,8,36.6,242871992.2,2023,6,13,13-Jun-23,"13-Jun-23, 14-Jun-23, 15-Jun-23, 16-Jun-23, 17-Jun-23"
3,NA,4,15-5853-54894,Mameigwess L.,NA, Lake Trout,49.55072,-91.82545,25-May-22,1612,2.5,Trend,5242,16.1,50,854861751.7,2019,6,12,12-Jun-19,"11-Jun-19, 12-Jun-19, 13-Jun-19, 14-Jun-19"
3,NA,6,15-7089-53866,Lower Shebandowan L.,NA,,48.61245,-90.17507,18-May-18,1443,2.4,Supplemental,2309.4,3.9,12.2,91101557.01,2018,6,12,12-Jun-18,"12-Jun-18, 13-Jun-18, 14-Jun-18, 15-Jun-18"
3,NA,6,15-6988-53913,Shebandowan L.s,NA, Walleye,48.64304,-90.30157,,1444,2.4,Trend,5971.7,6.1,36.6,362115459.1,2018,6,12,12-Jun-18,"12-Jun-18, 13-Jun-18, 14-Jun-18, 15-Jun-18"
3,NA,4,15-6164-54885,Cecil L.,NA, Lake Trout,49.54021,-91.40065,"23-May-19, 25-May-22",1569,2.3,Trend,1560.8,12.4,24.4,195266138.4,2019,6,11,11-Jun-19,"11-Jun-19, 12-Jun-19, 13-Jun-19, 14-Jun-19"
3,NA,5,15-3726-54565,"of the Woods, L.",NA, Walleye,49.32857,-94.50117,,,,Trend - nonrandom,219338.4,,,,2021,9,10,10-Sep-21,"01-Sep-21, 10-Sep-21, 11-Sep-21, 14-Sep-21, 15-Sep-21, 22-Sep-21, 23-Sep-21, 24-Sep-21, 25-Sep-21, 26-Aug-21, 26-Sep-21, 27-Aug-21, 27-Sep-21, 28-Aug-21, 30-Aug-21, 31-Aug-21"
3,NA,4,15-5349-56812,Grace L.,NA, Walleye,51.2872,-92.49861,,1491,1.3,Trend,475.7,4.1,10.8,19484044.59,2022,9,9,09-Sep-22,"09-Sep-22, 10-Sep-22, 11-Sep-22"
3,NA,5,15-4877-53939,Rainy L.,NA, Walleye,48.72662,-93.13074,23-May-18,,,Trend - nonrandom,68280.5,,,,2018,7,9,09-Jul-18,"04-Jul-18, 05-Jul-18, 06-Jul-18, 07-Jul-18, 08-Jul-18, 09-Jul-18, 17-Jul-18, 18-Jul-18, 19-Jul-18, 20-Jul-18, 21-Jul-18, 22-Jul-18, 22-Jun-18, 23-Jun-18, 24-Jun-18, 25-Jun-18, 26-Jun-18, 27-Jun-18"
3,NA,5,15-3467-55666,Winnipeg R.,NA, Walleye,50.24183,-95.15402,,,,Trend - nonrandom,62.9,,,,2023,8,9,09-Aug-23,"01-Aug-23, 09-Aug-23, 10-Aug-23, 11-Aug-23, 12-Aug-23, 13-Aug-23, 14-Aug-23, 27-Jul-23, 28-Jul-23, 29-Jul-23, 30-Jul-23, 31-Jul-23"
3,NA,4,15-6600-55380,Sturgeon L.,NA, Lake Trout,49.92729,-90.89686,27-May-19,1506,1.9,Trend,24047.8,13.6,93,2912127175,2019,7,6,06-Jul-19,"05-Jul-19, 06-Jul-19, 08-Jul-19, 09-Jul-19, 10-Jul-19"
3,NA,6,16-3488-53829,Penassen L.s,NA, Brook Trout,48.58443,-89.04505,,1447,3,Trend,41.2,2.7,14,1103654.57,2018,7,6,06-Jul-18,"04-Jul-18, 05-Jul-18"
3,NA,5,15-5770-54220,Turtle L.,NA, Walleye,48.95315,-91.94003,,1616,2.9,Trend,1208.5,6.3,18.3,76327105.3,2021,8,5,05-Aug-21,"05-Aug-21, 06-Aug-21"
3,NA,4,15-4270-56011,Conifer L.,NA, Lake Trout,50.5674,-94.03211,,1614,2.3,Trend,1137.9,25.3,65.8,284650285.2,2022,7,4,04-Jul-22,"03-Jul-22, 04-Jul-22, 05-Jul-22, 06-Jul-22, 07-Jul-22"
3,NA,4,15-5737-55520,Pelican L.,NA, Walleye,50.1115,-91.96123,23-May-22,1630,2.2,Trend,2296.9,10.4,36,238439369.3,2022,6,3,03-Jun-22,"01-Jun-22, 02-Jun-22, 03-Jun-22, 04-Jun-22, 31-May-22"
3,NA,5,15-4950-55030,Eagle L.,NA, Walleye,49.66881,-93.27879,24-May-22,1690,2.9,Trend,31706.4,7.2,32.8,2279936305,2022,7,3,03-Jul-22,"03-Jul-22, 04-Jul-22, 06-Jul-22, 07-Jul-22, 08-Jul-22"
3,NA,4,15-5808-56326,Otatakan L.,NA, Walleye,50.85048,-91.85134,,1529,1.5,Trend,1519.7,4.7,8.5,71153298.26,2021,7,3,03-Jul-21,"03-Jul-21, 04-Jul-21, 05-Jul-21"
3,NA,4,15-4613-57020,Nungesser L.,NA, Walleye,51.47248,-93.53952,21-May-19,1477,1.1,Trend,7417.5,4.9,15.2,366004176.3,2019,8,1,01-Aug-19,"30-Jul-19, 31-Jul-19"
3,NA,5,15-5849-53998,Perch L.,NA, Walleye,48.74848,-91.83244,,1608,3,Trend,760.7,5.9,24.7,41506500.67,2023,9,24,24-Sep-23,"22-Sep-23, 23-Sep-23, 24-Sep-23"
3,NA,5,15-5429-54280,Eltrut L.,NA, Walleye,49.00154,-92.41658,,1637,3,Trend,2269.8,3.7,12.2,88851797.53,2023,9,19,19-Sep-23,"19-Sep-23, 20-Sep-23"
3,NA,5,15-6065-54144,Marmion L.,NA, Walleye,48.89674,-91.51896,,1599,2.9,Trend,3960,6.2,24.4,246709732,2023,9,19,19-Sep-23,"22-Sep-23, 23-Sep-23, 24-Sep-23"
3,NA,5,15-6135-54228,Sawbill B.,NA, Walleye,48.96026,-91.44366,,1582,2.8,Trend,5516.4,6.3,30.5,353070543.2,2023,9,19,19-Sep-23,"19-Sep-23, 20-Sep-23, 21-Sep-23, 22-Sep-23"
3,NA,5,15-5023-54567,Lower Manitou L.,NA, Lake Trout,49.27811,-92.94807,24-May-22,1672,3,Trend & State,8871.7,19.9,81,1648675130,2023,9,12,12-Sep-23,"09-Sep-23, 10-Sep-23, 11-Sep-23"
3,NA,5,15-4127-55299,Plum L.,NA, Walleye,49.90988,-94.21523,26-May-22,1753,3.1,Trend,73.6,4.7,12,3482010.22,2023,9,10,10-Sep-23,"10-Sep-23, 11-Sep-23"
3,NA,7,16-5538-55350,Chipman L.,NA, Walleye,49.98361,-86.23982,,1317,0.7,Trend,2700.8,14.7,55.7,389156880,2023,9,10,10-Sep-23,"06-Sep-23, 07-Sep-23, 08-Sep-23, 09-Sep-23, 10-Sep-23, 11-Sep-23, 12-Sep-23"
3,NA,5,15-5842-54507,Nora L.,NA, Walleye,49.19934,-91.85993,,1611,2.7,Trend,1612.7,16.2,55.2,258001208.2,2023,9,8,08-Sep-23,"06-Sep-23, 07-Sep-23, 08-Sep-23"
3,NA,5,15-5241-55137,Thunder L.,NA, Walleye,49.77882,-92.66332,24-May-22,1660,2.6,Trend,1118.3,11.1,23.5,124653004.3,2023,9,7,07-Sep-23,"06-Sep-23, 07-Sep-23, 08-Sep-23, 09-Sep-23"
3,NA,5,15-3755-55568,Blueberry L.,NA, Walleye,50.15109,-94.74174,,1717,2.8,Trend,125.3,2.5,4.9,2600000,2023,9,6,06-Sep-23,"06-Sep-23, 07-Sep-23, 08-Sep-23"
3,NA,5,15-4725-54467,Bluffpoint L.,NA, Lake Trout,49.1767,-93.37447,,1688,3.1,Trend,503.7,10.4,38.1,54121600.55,2023,9,6,06-Sep-23,"06-Sep-23, 07-Sep-23, 08-Sep-23"
3,NA,5,15-5149-54725,Upper Manitou L.,NA," Lake Trout, Walleye",49.40161,-92.77724,24-May-22,1667,2.9,Trend,5310.4,17.2,56,892869256.4,2023,9,6,06-Sep-23,"06-Sep-23, 07-Sep-23, 08-Sep-23"
3,NA,5,15-5676-54025,Calm L.,NA,,48.78402,-92.08944,,1617,3,Supplemental,2446.5,13.9,65.3,344845077,2023,8,28,28-Aug-23,"28-Aug-23, 29-Aug-23, 30-Aug-23, 31-Aug-23"
3,NA,5,15-4710-54335,Kaiashkons L.,NA, Lake Trout,49.05496,-93.39573,,1684,3.1,Trend,2025.2,24.5,58,526039523.9,2023,8,28,28-Aug-23,"22-Aug-23, 23-Aug-23, 24-Aug-23, 25-Aug-23, 26-Aug-23, 27-Aug-23"
3,NA,4,15-6046-55042,Gooch L.,NA, Walleye,49.69139,-91.55158,25-May-22,1589,2.3,Trend,143,1.4,2.8,2024643.07,2023,8,26,26-Aug-23,"26-Aug-23, 27-Aug-23, 28-Aug-23"
3,NA,7,16-4348-54546,Kilgour L.,NA, Lake Trout,49.24343,-87.89394,,1372,2.1,Trend,95.9,8.1,23.2,7921800,2023,8,26,26-Aug-23,"22-Aug-23, 23-Aug-23, 24-Aug-23, 25-Aug-23, 26-Aug-23"
3,NA,7,16-5657-55074,Pagwachuan L.,NA, Lake Trout,49.71758,-86.08862,,1305,0.9,Trend,2674,19,53.9,503506063.5,2023,8,26,26-Aug-23,"23-Aug-23, 24-Aug-23, 25-Aug-23, 26-Aug-23, 27-Aug-23, 28-Aug-23"
3,NA,5,15-3541-54903,Shoal L.,NA, Walleye,49.54735,-94.94029,,,,Trend - nonrandom,25011,10,30,2510469072,2023,8,24,24-Aug-23,"22-Aug-23, 23-Aug-23, 24-Aug-23, 25-Aug-23, 26-Aug-23, 27-Aug-23"
3,NA,5,15-4943-54343,Vista L.,NA, Lake Trout,49.06245,-93.08016,24-May-22,1671,3.1,Trend,556.6,13.1,68.9,73687502.15,2023,8,24,24-Aug-23,"22-Aug-23, 23-Aug-23, 24-Aug-23, 25-Aug-23, 26-Aug-23"
3,NA,5,15-5684-54631,"WE66-23, L. (DRY-NL-651)",NA, Walleye,49.31937,-92.05985,,1626,2.7,Trend,113.6,2.3,5.2,2523099.88,2023,8,24,24-Aug-23,"22-Aug-23, 23-Aug-23, 24-Aug-23"
3,NA,6,15-6804-53764,Squeers L.,NA,,48.51628,-90.55746,,1466,2.5,Supplemental,369.6,11.5,33.6,44171500.7,2023,8,23,23-Aug-23,"21-Aug-23, 22-Aug-23, 23-Aug-23"
3,NA,5,15-5816-54402,White Otter L.,NA, Walleye,49.09057,-91.86311,,1615,2.8,Trend,8467.2,22.1,56.4,1823029031,2023,8,22,22-Aug-23,"22-Aug-23, 23-Aug-23, 24-Aug-23, 25-Aug-23, 26-Aug-23"
3,NA,7,16-5079-54800,Long L.,NA, Lake Trout,49.47507,-86.89059,,1319,1.2,Trend,13498.6,39.2,186.1,5025596800,2023,8,22,22-Aug-23,"22-Aug-23, 23-Aug-23, 24-Aug-23, 25-Aug-23, 26-Aug-23"
3,NA,5,15-5979-54059,Steep Rock L.,NA,,48.79669,-91.6697,,1605,2.9,Supplemental,618.3,4.8,14,29739077.82,2023,8,21,21-Aug-23,"21-Aug-23, 22-Aug-23, 23-Aug-23"
3,NA,5,15-4632-54287,Loonhaunt L.,NA, Walleye,49.002,-93.50355,,1686,3.2,Trend,2095.4,11.3,47.3,233955192.9,2023,8,13,13-Aug-23,"09-Aug-23, 10-Aug-23, 11-Aug-23, 12-Aug-23"
3,NA,5,15-4562-54445,Schistose L.,NA, Walleye,49.15469,-93.60163,,1698,3.1,Trend,338.3,16.6,53,57220203.34,2023,8,12,12-Aug-23,"09-Aug-23, 10-Aug-23, 11-Aug-23, 12-Aug-23"
3,NA,5,15-5970-53925,Abbess L.,NA, Lake Trout,48.67977,-91.68384,,1595,2.9,Trend,134.3,13,37.2,16925999.6,2023,8,11,11-Aug-23,"11-Aug-23, 12-Aug-23, 13-Aug-23"
3,NA,5,15-4396-54165,Off L.,NA, Walleye,48.90206,-93.83011,,1686,3.1,Trend,445.5,4.9,12.2,22486100.14,2023,8,10,10-Aug-23,"10-Aug-23, 11-Aug-23, 12-Aug-23"
3,NA,5,15-4512-54200,West Jackfish L.,NA, Walleye,48.93632,-93.66605,,1686,3.2,Trend,1941.2,5.3,18.3,103344068.1,2023,8,9,09-Aug-23,"09-Aug-23, 10-Aug-23, 11-Aug-23, 12-Aug-23"
3,NA,5,15-5502-54176,Manion L.,NA, Walleye,48.90942,-92.31834,,1630,3,Trend,1138.5,5.6,12,67082400.22,2023,7,30,30-Jul-23,"30-Jul-23, 31-Jul-23"
3,NA,5,15-4390-54514,Kakagi L.,NA, Lake Trout,49.24073,-93.83253,,1712,3.2,Trend & State,11061.7,20.6,58,2304254283,2023,7,25,25-Jul-23,"25-Jul-23, 26-Jul-23, 27-Jul-23, 28-Jul-23, 29-Jul-23"
3,NA,5,15-5600-54290,Mount L.,NA, Walleye,49.01314,-92.18708,,1628,2.9,Trend,1016.7,12.8,37.2,130599714.3,2023,7,25,25-Jul-23,"25-Jul-23, 26-Jul-23, 27-Jul-23"
3,NA,5,15-5586-54227,Sandbeach L.,NA, Walleye,48.95915,-92.20128,,1627,2.9,Trend,666.6,20.7,54.9,141070505.2,2023,7,25,25-Jul-23,"25-Jul-23, 26-Jul-23, 27-Jul-23, 28-Jul-23"
3,NA,5,15-3532-55170,Whitefish L.,NA, Walleye,49.78718,-95.03457,,1752,3.1,Trend,216.4,7,20.1,15400000,2023,7,25,25-Jul-23,"25-Jul-23, 26-Jul-23, 27-Jul-23"
3,NA,5,15-4124-55428,Old Man L.,NA, Walleye,50.03672,-94.22218,26-May-22,1730,2.9,Trend,160.8,6.1,23,9607499.85,2023,7,17,17-Jul-23,"17-Jul-23, 18-Jul-23, 19-Jul-23"
3,NA,5,15-5026-55337,Rugby L.,NA, Walleye,49.95675,-92.95825,23-May-22,1662,2.6,Trend,1020.5,3.4,7.6,33469601.77,2023,7,14,14-Jul-23,"14-Jul-23, 15-Jul-23, 16-Jul-23, 17-Jul-23"
3,NA,7,16-5406-54956,McKay L.,NA, Lake Trout,49.6134,-86.43808,,1309,1,Trend,3155.6,9.4,48.8,294370400,2023,7,13,13-Jul-23,"11-Jul-23, 13-Jul-23, 14-Jul-23, 16-Jul-23, 17-Jul-23, 25-Jul-23, 26-Jul-23, 27-Jul-23"
3,NA,5,15-4431-54685,Caviar L.,NA, Walleye,49.37469,-93.77506,,1717,3.2,Trend,3170.3,9.1,39.6,289907816.6,2023,7,11,11-Jul-23,"10-Jul-23, 11-Jul-23, 12-Jul-23, 13-Jul-23"
3,NA,4,15-5365-55747,"Seul, La.",NA, Walleye,50.40282,-92.47874,,,,Trend - nonrandom,134398.1,8.6,36,11534390115,2023,7,10,10-Jul-23,"09-Jul-23, 10-Jul-23, 11-Jul-23, 14-Jul-23, 15-Jul-23, 16-Jul-23, 17-Jul-23"
3,NA,5,15-4342-54693,Dogpaw L.,NA, Lake Trout,49.36962,-93.90523,,1726,3.2,Trend,1966.9,10.3,24.4,205423206.3,2023,7,10,10-Jul-23,"13-Jul-23, 14-Jul-23, 15-Jul-23, 16-Jul-23"
3,NA,5,15-5100-54230,Otukamamoan L.,NA, Walleye,48.96084,-92.89431,,1656,3.1,Trend,5026.2,16.9,53.7,873020147.3,2023,7,9,09-Jul-23,"09-Jul-23, 10-Jul-23, 11-Jul-23, 12-Jul-23"
3,NA,5,15-4729-54570,Lawrence L.,NA, Walleye,49.27504,-93.36566,24-May-22,1691,3.1,Trend,1877.3,22.2,76.2,415295403.4,2023,6,30,30-Jun-23,"26-Jun-23, 27-Jun-23, 28-Jun-23, 29-Jun-23"
3,NA,5,15-4351-55357,Shrub L.,NA, Lake Trout,49.97099,-93.89782,26-May-22,1715,2.9,Trend,550.3,9,26,50283001.1,2023,6,30,30-Jun-23,"27-Jun-23, 28-Jun-23, 29-Jun-23, 30-Jun-23"
3,NA,7,16-4888-54320,Stingray L.,NA, Brook Trout,49.04258,-87.15365,,,,Trend,92,,,,2023,6,28,28-Jun-23,"27-Jun-23, 28-Jun-23, 29-Jun-23"
3,NA,5,15-5503-53695,Captain Tom L.,NA, Walleye,48.47819,-92.31846,,1617,3.1,Trend,188.5,6.2,21.4,12356599.81,2023,6,27,27-Jun-23,"27-Jun-23, 28-Jun-23, 29-Jun-23"
3,NA,5,15-4395-54864,Dryberry L.,NA, Lake Trout,49.54722,-93.85008,,1726,3.2,Trend,10238.6,22.1,105.5,2410005042,2023,6,27,27-Jun-23,"22-Jun-23, 27-Jun-23, 28-Jun-23, 29-Jun-23, 30-Jun-23"
3,NA,7,16-5818-55170,Klotz L.,NA, Walleye,49.80202,-85.86278,,1302,0.9,Trend,786.2,7.8,19.8,64747800,2023,6,16,16-Jun-23,"12-Jun-23, 13-Jun-23, 14-Jun-23, 15-Jun-23, 16-Jun-23"
3,NA,5,15-3653-55394,Cygnet L.,NA, Walleye,49.99142,-94.88562,,1738,3,Trend,1317.9,4.1,11,55538597.71,2023,6,13,13-Jun-23,"13-Jun-23, 14-Jun-23, 15-Jun-23, 16-Jun-23, 17-Jun-23"
3,NA,5,15-3662-55240,Pelicanpouch L.,NA, Walleye,49.85536,-94.87014,,1753,3.1,Trend,1125.2,3.6,9.2,39916800.7,2023,6,13,13-Jun-23,"13-Jun-23, 14-Jun-23, 15-Jun-23, 16-Jun-23, 17-Jun-23"
3,NA,4,15-4187-56135,Confusion L.,NA, Walleye,50.65108,-94.17888,,1600,2.1,Trend,1463,11.6,42.7,165439199.8,2022,9,7,07-Sep-22,"07-Sep-22, 08-Sep-22, 09-Sep-22"
3,NA,4,15-3895-55970,Wyder L.,NA, Lake Trout,50.51618,-94.55925,,1647,2.4,Trend,265.2,8.1,31,20841299.99,2022,9,7,07-Sep-22,"07-Sep-22, 08-Sep-22, 09-Sep-22"
3,NA,4,15-4919-56922,Blair L.,NA, Walleye,51.37386,-93.11465,22-May-22,1479,1.2,Trend,126.1,3.8,11.3,4751811.43,2022,8,30,30-Aug-22,"29-Aug-22, 30-Aug-22, 31-Aug-22"
3,NA,4,15-4255-56385,Upper Medicine Stone L.,NA, Lake Trout,50.89562,-94.05979,,1555,1.8,Trend,1076.2,15.7,41.2,168429605.6,2022,8,26,26-Aug-22,"26-Aug-22, 27-Aug-22, 28-Aug-22, 29-Aug-22, 30-Aug-22"
3,NA,4,15-5209-57140,Wavell L.,NA, Walleye,51.5779,-92.69876,22-May-22,1455,0.9,Trend,805.8,9.5,23,78755000,2022,8,26,26-Aug-22,"26-Aug-22, 27-Aug-22, 28-Aug-22, 29-Aug-22"
3,NA,5,15-6460-54008,Elbow L.,NA,,48.74861,-91.02265,,,,Supplemental,567.4,,,,2022,8,26,26-Aug-22,"26-Aug-22, 27-Aug-22, 28-Aug-22, 29-Aug-22"
3,NA,4,15-5045-56849,Shabu L.,NA, Walleye,51.31424,-92.93967,22-May-22,1485,1.3,Trend,709.1,4.4,13.2,31587601.76,2022,8,25,25-Aug-22,"25-Aug-22, 26-Aug-22, 27-Aug-22, 28-Aug-22"
3,NA,4,15-6500-55194,Bell L.,NA, Lake Trout,49.80966,-90.93897,25-May-22,1520,2,Trend,4161.8,9.5,34.4,396112009.3,2022,8,23,23-Aug-22,"23-Aug-22, 24-Aug-22, 25-Aug-22, 26-Aug-22, 27-Aug-22"
3,NA,6,15-6804-53764,Squeers L.,NA,,48.51628,-90.55746,,1466,2.5,Supplemental,369.6,11.5,33.6,44171500.7,2022,8,23,23-Aug-22,"22-Aug-22, 23-Aug-22"
3,NA,2,15-4198-58335,Deer L.,NA,,52.63469,-94.20479,,1406,0.3,Supplemental,14580.6,14.5,66,2115625694,2022,8,22,22-Aug-22,"09-Aug-22, 10-Aug-22, 11-Aug-22"
3,NA,4,15-6733-56270,Minchin L.,NA, Walleye,50.76686,-90.54351,,1458,1.2,Trend,1514.9,6.3,24.4,95453807.97,2022,8,20,20-Aug-22,"17-Aug-22, 18-Aug-22, 19-Aug-22"
3,NA,5,15-4487-55234,Augite L.,NA, Lake Trout,49.8623,-93.71668,,1709,2.9,Trend,106.5,9.9,26,10414799.3,2022,8,19,19-Aug-22,"17-Aug-22, 18-Aug-22, 19-Aug-22"
3,NA,5,15-4452-55268,Little Gordon L.,NA, Lake Trout,49.89284,-93.76337,,1711,2.9,Trend,178.6,17.3,46.7,30447998.66,2022,8,18,18-Aug-22,"16-Aug-22, 17-Aug-22, 18-Aug-22, 19-Aug-22"
3,NA,7,16-4450-54254,Buckaday L.,NA, Brook Trout,48.98064,-87.75228,,1341,2.3,Trend,94.6,7.1,33.6,7632500,2022,8,17,17-Aug-22,"17-Aug-22, 18-Aug-22, 19-Aug-22"
3,NA,4,15-4269-56605,Hammell L.,NA, Lake Trout,51.09368,-94.0448,,1523,1.5,Trend,831.4,9.6,24.4,80267801.4,2022,8,16,16-Aug-22,"16-Aug-22, 17-Aug-22, 18-Aug-22, 19-Aug-22"
3,NA,4,15-5970-55554,Botsford L.,NA, Walleye,50.13856,-91.6591,23-May-22,1603,2.1,Trend,1472.6,6.7,24,99070208.44,2022,8,8,08-Aug-22,"08-Aug-22, 09-Aug-22, 10-Aug-22, 11-Aug-22"
3,NA,4,15-6321-55100,Crystal L.,NA, Walleye,49.72882,-91.1675,25-May-22,1546,2.1,Trend,115.8,1.9,4.6,2260999.97,2022,8,7,07-Aug-22,"07-Aug-22, 08-Aug-22"
3,NA,4,15-4674-55871,Anishinabi L.,NA, Lake Trout,50.43988,-93.44327,,1607,2.3,Trend,3295.5,32,88.8,1054920946,2022,8,5,05-Aug-22,"05-Aug-22, 06-Aug-22, 07-Aug-22, 08-Aug-22"
3,NA,4,15-5605-56599,Jeanette L.,NA, Walleye,51.0898,-92.13638,,1507,1.4,Trend,1580.7,4.3,12.5,74527601.21,2022,8,5,05-Aug-22,"05-Aug-22, 06-Aug-22, 07-Aug-22, 08-Aug-22, 09-Aug-22"
3,NA,4,15-4455-55462,Big Canon L.,NA, Lake Trout,50.06847,-93.75888,26-May-22,1690,2.8,Trend,2089.2,21.6,63,451307120.9,2022,8,4,04-Aug-22,"03-Aug-22, 04-Aug-22, 05-Aug-22"
3,NA,4,15-4642-55404,Eye L.,NA, Walleye,50.01584,-93.50594,26-May-22,1679,2.7,Trend,130.4,4.2,7.2,5498300.19,2022,7,27,27-Jul-22,"25-Jul-22, 26-Jul-22"
3,NA,4,15-5282-55495,Mold L.,NA, Lake Trout,50.09953,-92.6059,23-May-22,1638,2.4,Trend,48,7.3,17,3542187.36,2022,7,26,26-Jul-22,"26-Jul-22, 27-Jul-22"
3,NA,4,15-5606-56722,Hailstone L.,NA, Walleye,51.20038,-92.1061,,1494,1.3,Trend,515.2,1.6,14,8763335.91,2022,7,18,18-Jul-22,"18-Jul-22, 19-Jul-22"
3,NA,4,15-4784-56717,Trout L.,NA, Lake Trout,51.19868,-93.30949,,1497,1.4,Trend,34518.2,13.7,47.3,4768545020,2022,7,15,15-Jul-22,"14-Jul-22, 15-Jul-22, 16-Jul-22, 17-Jul-22, 18-Jul-22, 19-Jul-22"
3,NA,4,15-4741-57335,Silcox L.,NA, Walleye,51.75362,-93.37461,22-May-22,1445,0.8,Trend,873.9,3.2,6.1,28328635.25,2022,7,14,14-Jul-22,"14-Jul-22, 15-Jul-22"
3,NA,7,16-5188-55331,Burrows L.,NA, Walleye,49.9523,-86.73837,,1336,0.7,Trend,1758.5,2.9,18.3,51077703.1,2022,7,8,08-Jul-22,"06-Jul-22, 07-Jul-22, 08-Jul-22, 09-Jul-22, 10-Jul-22"
3,NA,4,15-5179-56721,Woman L.,NA, Lake Trout,51.20095,-92.75446,22-May-22,1498,1.4,Trend,1929.4,10.2,34,197457762,2022,7,3,03-Jul-22,"03-Jul-22, 04-Jul-22, 05-Jul-22, 06-Jul-22"
3,NA,5,15-6263-53964,Crystal L.,NA, Lake Trout,48.7076,-91.27802,,1557,2.8,Trend,623.9,15.9,47,99948942.89,2022,6,22,22-Jun-22,"16-Jun-22, 17-Jun-22, 18-Jun-22, 19-Jun-22, 20-Jun-22, 21-Jun-22"
3,NA,4,15-4131-55595,Big Fox L.,NA, Walleye,50.17355,-94.19317,26-May-22,1700,2.8,Trend,1624.3,7.8,33.7,127065980,2022,6,20,20-Jun-22,"18-Jun-22, 19-Jun-22, 20-Jun-22"
3,NA,5,15-4606-55329,Edward L.,NA, Walleye,49.9464,-93.55602,26-May-22,1689,2.8,Trend,534.3,3.4,7.9,18230800.93,2022,6,19,19-Jun-22,"18-Jun-22, 19-Jun-22, 20-Jun-22, 21-Jun-22"
3,NA,4,15-4305-55763,Tide L.,NA, Walleye,50.33775,-93.98355,26-May-22,1657,2.5,Trend,1373.8,10.6,30.5,143121200,2022,6,17,17-Jun-22,"15-Jun-22, 16-Jun-22"
3,NA,5,15-4216-54977,Andy L.,NA, Walleye,49.62961,-94.08984,,1753,3.2,Trend,162.7,6,14.6,9786000.37,2022,6,16,16-Jun-22,"13-Jun-22, 14-Jun-22, 15-Jun-22"
3,NA,4,15-5735-55360,Minnitaki L.,NA, Walleye,49.97183,-91.95802,23-May-22,1631,2.3,Trend,17508.9,12.2,44,2128401752,2022,6,3,03-Jun-22,"01-Jun-22, 02-Jun-22, 03-Jun-22, 04-Jun-22, 05-Jun-22"
3,NA,4,15-5765-55453,Abram L.,NA, Walleye,50.05909,-91.92916,23-May-22,1630,2.2,Trend,2438.5,13.4,40,325790362.5,2022,6,2,02-Jun-22,"01-Jun-22, 02-Jun-22, 03-Jun-22, 04-Jun-22, 05-Jun-22, 31-May-22"
3,NA,7,16-4548-54782,Parks L.,NA, Walleye,49.45125,-87.64326,,1355,1.6,Trend,1337.8,2.8,21.4,44097200,2021,9,7,07-Sep-21,"07-Sep-21, 08-Sep-21, 09-Sep-21"
3,NA,4,15-6217-56090,Carling L.,NA, Lake Trout,50.6223,-91.28022,,1524,1.5,Trend,1555.6,8.8,40.9,130996800.7,2021,8,30,30-Aug-21,"01-Sep-21, 27-Aug-21, 28-Aug-21, 29-Aug-21, 30-Aug-21, 31-Aug-21"
3,NA,4,15-5192-56320,Whitemud L.,NA, Walleye,50.8448,-92.73259,22-May-22,1537,1.8,Trend,1241.4,4.7,15.6,57701895.36,2021,8,30,30-Aug-21,"30-Aug-21, 31-Aug-21"
3,NA,6,16-3657-54310,Little Moraine L.,NA, Lake Trout,49.01989,-88.83585,,1436,2.6,Trend,234.1,13.2,32,30973474.07,2021,8,27,27-Aug-21,"26-Aug-21, 27-Aug-21, 28-Aug-21"
3,NA,7,16-4420-54651,Barbara L.,NA, Lake Trout,49.34384,-87.80103,,1364,1.9,Trend,2348,14,54.9,329108650.6,2021,8,25,25-Aug-21,"25-Aug-21, 26-Aug-21, 27-Aug-21, 28-Aug-21, 30-Aug-21, 31-Aug-21"
3,NA,6,15-7019-53947,Kabaigon L.,NA,,48.6744,-90.25679,,,,Supplemental,138.2,,,,2021,8,20,20-Aug-21,"17-Aug-21, 18-Aug-21, 19-Aug-21"
3,NA,5,15-6493-54089,Union L.,NA, Walleye,48.82795,-90.97053,,1508,2.5,Trend,278.5,3.8,14,10575302.02,2021,8,19,19-Aug-21,"17-Aug-21, 18-Aug-21, 19-Aug-21"
3,NA,4,15-6908-56374,McCrea L.,NA, Walleye,50.85869,-90.28963,,1436,1,Trend,4013.9,6.5,49.7,260875724.9,2021,8,18,18-Aug-21,"15-Aug-21, 16-Aug-21, 17-Aug-21"
3,NA,5,15-5670-54304,Grey Trout L.,NA, Lake Trout,49.0294,-92.07951,,1624,2.9,Trend,1333.2,17,48.8,220626008.3,2021,8,18,18-Aug-21,"16-Aug-21, 17-Aug-21, 18-Aug-21, 19-Aug-21"
3,NA,6,15-6804-53764,Squeers L.,NA,,48.51628,-90.55746,,1466,2.5,Supplemental,369.6,11.5,33.6,44171500.7,2021,8,15,15-Aug-21,"12-Aug-21, 13-Aug-21, 14-Aug-21"
3,NA,5,15-5755-54281,Clearwater West L.,NA, Lake Trout,49.00747,-91.98602,,1618,2.9,Trend,3598.8,27.2,73.2,983151001.5,2021,8,14,14-Aug-21,"13-Aug-21, 14-Aug-21, 15-Aug-21, 16-Aug-21"
3,NA,4,15-7043-56488,Greenbush L.,NA, Walleye,50.95093,-90.10466,27-May-19,1420,0.9,Trend,2926.6,2.1,10,60282599.31,2021,8,13,13-Aug-21,"12-Aug-21, 13-Aug-21"
3,NA,7,16-4995-54471,Catlonite L.,NA, Brook Trout,49.17841,-87.00698,12-Jun-22,1286,1.7,Trend,325.7,11,35.1,35882000,2021,8,8,08-Aug-21,"08-Aug-21, 11-Aug-21, 12-Aug-21"
3,NA,4,15-4470-55367,Canyon L.,NA, Walleye,49.9888,-93.68699,,1699,2.9,Trend,1697.9,6.8,19.8,115681599.9,2021,8,6,06-Aug-21,"05-Aug-21, 06-Aug-21"
3,NA,5,15-6383-54085,Mercutio L.,NA, Walleye,48.80983,-91.09871,,1533,2.6,Trend,1668.8,4.9,15.3,72181900.21,2021,8,6,06-Aug-21,"05-Aug-21, 06-Aug-21, 07-Aug-21, 08-Aug-21, 09-Aug-21"
3,NA,6,15-7019-53947,Kabaigon L.,NA,,48.6744,-90.25679,,,,Supplemental,138.2,,,,2021,7,30,30-Jul-21,"26-Jul-21, 27-Jul-21, 28-Jul-21, 29-Jul-21"
3,NA,4,15-5752-55022,Unnamed L. (FMZ04_01),NA, Walleye,49.66803,-91.95766,25-May-22,1626,2.5,Trend,64.3,2.8,5.5,1816290.24,2021,7,27,27-Jul-21,26-Jul-21
3,NA,5,15-5503-54708,Stormy L.,NA, Lake Trout,49.39447,-92.34669,24-May-22,1643,2.7,Trend,3432.5,12.6,36.6,434985452.6,2021,7,27,27-Jul-21,"26-Jul-21, 27-Jul-21, 28-Jul-21"
3,NA,5,15-6076-54043,Rawn Re.,NA, Walleye,48.78507,-91.53701,,1600,2.9,Trend,209.6,4.2,16,8937599.72,2021,7,26,26-Jul-21,"26-Jul-21, 27-Jul-21, 28-Jul-21"
3,NA,6,16-4013-54584,Cox L.,NA,,49.27195,-88.35773,,,,Supplemental,217.5,,,,2021,7,26,26-Jul-21,"26-Jul-21, 27-Jul-21, 28-Jul-21"
3,NA,6,16-4000-54670,Oskawe L.,NA,,49.34929,-88.37581,,1413,2.3,Supplemental,563.7,6.2,18,34925820.54,2021,7,26,26-Jul-21,"26-Jul-21, 27-Jul-21, 28-Jul-21"
3,NA,6,16-3700-54335,Cliff L.,NA, Lake Trout,49.04188,-88.77821,,1436,2.6,Trend,41.1,5.4,12,2316600.12,2021,7,21,21-Jul-21,"13-Jul-21, 14-Jul-21"
3,NA,5,15-6345-54482,Scotch L.,NA, Walleye,49.15786,-91.17121,,1533,2.4,Trend,1254.4,9.2,27.8,118827195.3,2021,7,20,20-Jul-21,"19-Jul-21, 20-Jul-21"
3,NA,7,16-4688-55390,Onaman L.,NA, Walleye,50.00783,-87.44852,,1349,0.9,Trend,11061.8,2.2,18.9,238436005.2,2021,7,19,19-Jul-21,"10-Jul-21, 18-Jul-21, 19-Jul-21, 20-Jul-21"
3,NA,4,15-5213-56724,Premier L.,NA, Lake Trout,51.20424,-92.69474,22-May-22,1498,1.4,Trend,152.2,8.4,24,12845044.35,2021,7,18,18-Jul-21,"17-Jul-21, 18-Jul-21"
3,NA,4,15-5210-56629,Confederation L.,NA, Lake Trout,51.11521,-92.67556,22-May-22,1506,1.5,Trend,2606.2,8.3,32.3,346466891.8,2021,7,14,14-Jul-21,"14-Jul-21, 15-Jul-21, 16-Jul-21"
3,NA,5,15-5320-54970,Dinorwic L.,NA, Walleye,49.62051,-92.56305,24-May-22,1659,2.7,Trend,5007.5,3.8,10,192124519.7,2021,7,14,14-Jul-21,"16-Jul-21, 17-Jul-21, 18-Jul-21, 19-Jul-21"
3,NA,5,15-5124-54968,Dore L.,NA, Walleye,49.61582,-92.83074,24-May-22,1671,2.7,Trend,965.2,8.7,24.4,86808597.03,2021,7,14,14-Jul-21,"14-Jul-21, 15-Jul-21, 16-Jul-21, 17-Jul-21, 18-Jul-21"
3,NA,5,15-5203-55093,Wabigoon L.,NA, Walleye,49.73222,-92.72928,24-May-22,1665,2.6,Trend,10365.8,6.5,15,674349995,2021,7,14,14-Jul-21,"14-Jul-21, 15-Jul-21, 16-Jul-21"
3,NA,7,16-4457-54868,Bigamy L.,NA, Brook Trout,49.53574,-87.75902,,1366,1.6,Trend,36.3,2.4,10,873848.89,2021,7,13,13-Jul-21,"13-Jul-21, 14-Jul-21"
3,NA,7,16-4802-54273,Big Duck L.,NA, Brook Trout,49.00063,-87.27033,12-Jun-22,,,Trend,224,,,,2021,7,11,11-Jul-21,"08-Jul-21, 09-Jul-21, 10-Jul-21, 11-Jul-21"
3,NA,4,15-5974-55920,Tully L.,NA, Lake Trout,50.47548,-91.63028,,,,Trend,1131.6,,,,2021,7,8,08-Jul-21,"07-Jul-21, 08-Jul-21"
3,NA,4,15-5946-55139,Kukukus L.,NA, Walleye,49.7724,-91.68396,25-May-22,1606,2.3,Trend,4167.7,5,19.5,206439990.2,2021,7,5,05-Jul-21,"02-Jul-21, 03-Jul-21, 04-Jul-21, 05-Jul-21"
3,NA,4,15-5556-55428,Big Vermilion L.,NA, Lake Trout,50.04484,-92.20826,23-May-22,1636,2.3,Trend,6900.5,12.6,41,871168593.9,2021,7,3,03-Jul-21,"03-Jul-21, 04-Jul-21, 05-Jul-21, 06-Jul-21, 07-Jul-21"
3,NA,4,15-4589-56848,Coli L.,NA, Walleye,51.31536,-93.59007,,1488,1.3,Trend,2114.2,2.5,9.2,53147497.56,2021,6,22,22-Jun-21,"21-Jun-21, 22-Jun-21, 23-Jun-21"
3,NA,4,15-6300-55346,Penassi L.,NA, Walleye,49.95125,-91.19549,23-May-22,1553,2,Trend,1446.1,6.6,27.1,95125801.85,2021,6,22,22-Jun-21,"20-Jun-21, 21-Jun-21, 22-Jun-21, 23-Jun-21"
3,NA,5,15-5172-54948,Godson L.,NA, Walleye,49.60903,-92.76425,24-May-22,1668,2.7,Trend,259.5,3,6.1,7848000.18,2021,6,22,22-Jun-21,"21-Jun-21, 22-Jun-21, 23-Jun-21"
3,NA,6,16-3708-54345,Pringle L.,NA, Lake Trout,49.05233,-88.76841,,1435,2.6,Trend,179.3,10.2,29,18295555.29,2021,6,21,21-Jun-21,"21-Jun-21, 22-Jun-21, 23-Jun-21"
3,NA,4,15-4602-55724,Sup L.,NA, Walleye,50.30519,-93.55796,26-May-22,1638,2.5,Trend,675.8,8.1,19.2,55007100.61,2021,6,20,20-Jun-21,"16-Jun-21, 17-Jun-21, 18-Jun-21, 19-Jun-21, 20-Jun-21"
3,NA,5,15-5221-54041,Little Turtle L.,NA, Walleye,48.78047,-92.68563,,1640,3.1,Trend,2305.7,3.6,9.2,80099997.88,2021,6,20,20-Jun-21,"20-Jun-21, 21-Jun-21, 22-Jun-21"
3,NA,7,16-4882-55089,Wildgoose L.,NA, Walleye,49.72631,-87.17505,,1350,0.9,Trend,1717.1,3.6,15.9,62586000,2021,6,20,20-Jun-21,"20-Jun-21, 21-Jun-21, 22-Jun-21, 23-Jun-21, 24-Jun-21"
3,NA,4,15-4414-56807,Little Vermilion L.,NA, Walleye,51.26224,-93.83115,,1498,1.3,Trend,5489.1,3.4,8.5,191637602.1,2021,6,19,19-Jun-21,"17-Jun-21, 18-Jun-21, 19-Jun-21"
3,NA,4,15-5826-54970,Gustauson L.,NA, Lake Trout,49.62257,-91.85843,25-May-22,1617,2.5,Trend,143.8,8.9,24,12887720.58,2021,6,17,17-Jun-21,"16-Jun-21, 17-Jun-21, 18-Jun-21"
3,NA,5,15-5236-53978,Bad Vermilion L.,NA, Walleye,48.72571,-92.68243,,1639,3.1,Trend,1788.5,17,49.4,308226995.9,2021,6,16,16-Jun-21,"16-Jun-21, 17-Jun-21, 18-Jun-21"
3,NA,4,15-4172-56262,Longlegged L.,NA, Walleye,50.78395,-94.17453,21-May-19,1580,2,Trend,6760.3,8.9,35.4,615479473.6,2021,6,8,08-Jun-21,"08-Jun-21, 09-Jun-21, 10-Jun-21, 11-Jun-21"
3,NA,4,15-6217-55096,Wintering L.,NA, Walleye,49.72761,-91.31415,25-May-22,1564,2.2,Trend,1654.2,5.3,15.9,90534600.67,2021,6,8,08-Jun-21,"08-Jun-21, 09-Jun-21, 10-Jun-21, 11-Jun-21"
3,NA,5,15-3726-54565,"of the Woods, L.",NA, Walleye,49.32857,-94.50117,15-May-18,,,Trend - nonrandom,219338.4,,,,2019,9,11,11-Sep-19,"09-Sep-19, 10-Sep-19, 11-Sep-19"
3,NA,6,16-3699-53994,Mackenzie L.,NA, Brook Trout,48.73581,-88.76982,,1431,2.9,Trend,53.7,,,,2019,9,1,01-Sep-19,"29-Jul-19, 30-Jul-19, 31-Jul-19"
3,NA,4,15-5463-55189,Big Sandy L.,NA, Lake Trout,49.82359,-92.36295,21-May-19,1647,2.5,Trend,3808.1,20.3,41,775500560.9,2019,8,30,30-Aug-19,"26-Aug-19, 27-Aug-19, 28-Aug-19, 29-Aug-19, 30-Aug-19"
3,NA,5,15-3726-54565,"of the Woods, L.",NA, Walleye,49.32857,-94.50117,,,,Trend - nonrandom,219338.4,,,,2019,8,29,29-Aug-19,"27-Aug-19, 28-Aug-19"
3,NA,5,15-3726-54565,"of the Woods, L.",NA, Walleye,49.32857,-94.50117,,,,Trend - nonrandom,219338.4,,,,2019,8,25,25-Aug-19,"24-Aug-19, 25-Aug-19"
3,NA,6,15-6804-53764,Squeers L.,NA,,48.51628,-90.55746,,1466,2.5,Supplemental,369.6,11.5,33.6,44171500.7,2019,8,25,25-Aug-19,"22-Aug-19, 23-Aug-19, 24-Aug-19"
3,NA,4,15-6090-55164,Press L.,NA, Walleye,49.79986,-91.50461,25-May-22,1585,2.2,Trend,3645.8,5.6,22,202602391.1,2019,8,19,19-Aug-19,"16-Aug-19, 17-Aug-19, 18-Aug-19, 19-Aug-19"
3,NA,4,15-6895-56512,Pashkokogan L.,NA, Walleye,50.98287,-90.30102,27-May-19,1434,0.9,Trend,5508.4,3,14.9,198191997.1,2019,8,17,17-Aug-19,"17-Aug-19, 18-Aug-19"
3,NA,4,15-5802-54916,Mud L.,NA, Walleye,49.57403,-91.89103,25-May-22,1618,2.5,Trend,128,4.7,10.3,5710499.77,2019,8,16,16-Aug-19,"16-Aug-19, 17-Aug-19, 18-Aug-19"
3,NA,4,15-6825-55952,Savant L.,NA, Walleye,50.4823,-90.42741,27-May-19,1460,1.4,Trend,12524,7.9,53,951262696.1,2019,8,15,15-Aug-19,"10-Aug-19, 11-Aug-19, 12-Aug-19, 13-Aug-19, 14-Aug-19"
3,NA,4,15-4335-56548,Red L.,NA, Walleye,51.06421,-93.95704,21-May-19,1523,1.5,Trend,16392.8,12.2,42,1998053907,2019,8,13,13-Aug-19,"11-Aug-19, 12-Aug-19, 13-Aug-19"
3,NA,4,15-5085-55575,Thaddeus L.,NA, Walleye,50.17463,-92.89251,21-May-19,1635,2.4,Trend,1566.4,8.5,16.2,132600000,2019,8,13,13-Aug-19,"10-Aug-19, 11-Aug-19, 12-Aug-19, 13-Aug-19, 14-Aug-19"
3,NA,4,15-6378-55460,Gibraltar L.,NA, Walleye,50.0521,-91.07599,23-May-22,1540,1.9,Trend,109.3,2,3,2223999.94,2019,8,12,12-Aug-19,"12-Aug-19, 13-Aug-19"
3,NA,4,15-5413-55979,Birmingham L.,NA, Walleye,50.52717,-92.41983,,1580,2,Trend,267.5,3.5,6,9330207.95,2019,8,9,09-Aug-19,"09-Aug-19, 10-Aug-19"
3,NA,4,15-4567-56470,Gullrock L.,NA, Walleye,50.96114,-93.64489,21-May-19,1524,1.6,Trend,6867.3,7.6,16,522948998.1,2019,8,9,09-Aug-19,"09-Aug-19, 10-Aug-19"
3,NA,6,16-3718-54003,Clegge L.,NA, Brook Trout,48.74428,-88.7448,,,,Trend,20.4,,,,2019,8,9,09-Aug-19,"08-Aug-19, 09-Aug-19, 10-Aug-19"
3,NA,4,15-6048-54975,Victoria L.,NA, Lake Trout,49.62381,-91.54686,25-May-22,1589,2.4,Trend,926.2,8.9,28.1,82543383.6,2019,8,1,01-Aug-19,"29-Jul-19, 30-Jul-19, 31-Jul-19"
3,NA,6,16-3593-54568,Muskrat L.,NA, Walleye,49.25292,-88.94318,21-May-18,1429,2.4,Trend,503,4,7.6,2024.32,2019,7,31,31-Jul-19,"29-Jul-19, 30-Jul-19"
3,NA,4,15-5452-56951,Birch L.,NA, Walleye,51.39338,-92.37217,21-May-19,1477,1.1,Trend,11623.4,7.4,37,874916825.7,2019,7,30,30-Jul-19,"01-Aug-19, 29-Jul-19, 30-Jul-19, 31-Jul-19"
3,NA,4,15-5837-55088,Arethusa L.,NA, Walleye,49.71847,-91.86176,23-May-19,1619,2.4,Trend,767.9,6.2,18,48496399.26,2019,7,24,24-Jul-19,"20-Jul-19, 21-Jul-19, 22-Jul-19, 23-Jul-19"
3,NA,6,16-3706-53956,Bisect L.,NA, Brook Trout,48.70281,-88.75896,,1429,2.9,Trend,34.9,5.9,13.1,1740500.03,2019,7,24,24-Jul-19,"22-Jul-19, 23-Jul-19"
3,NA,4,15-6471-56202,Arc L.,NA, Walleye,50.71702,-90.90662,27-May-19,1488,1.3,Trend,596.3,5.7,31,34178029.16,2019,7,20,20-Jul-19,"16-Jul-19, 17-Jul-19, 18-Jul-19"
3,NA,4,15-6617-56410,Bertaud L.,NA, Walleye,50.89944,-90.69978,27-May-19,1465,1.1,Trend,412.6,6.9,24,28814535.02,2019,7,20,20-Jul-19,"20-Jul-19, 21-Jul-19"
3,NA,4,15-6890-55500,Seseganaga L.,NA, Walleye,50.06571,-90.35308,27-May-19,1461,1.6,Trend,10651.1,5.6,42.3,601266411.6,2019,7,20,20-Jul-19,"17-Jul-19, 18-Jul-19, 19-Jul-19"
3,NA,4,15-3754-55732,Umfreville L.,NA, Walleye,50.32297,-94.83832,21-May-19,1695,2.7,Trend,14044.9,15.7,46.3,2222671943,2019,7,20,20-Jul-19,"20-Jul-19, 21-Jul-19, 22-Jul-19"
3,NA,4,15-6742-56100,Fitchie L.,NA, Walleye,50.61813,-90.53714,27-May-19,1465,1.3,Trend,1147.7,4.6,19.2,50397597.83,2019,7,19,19-Jul-19,"16-Jul-19, 17-Jul-19, 18-Jul-19"
3,NA,6,16-3647-54369,Forbes L.,NA, Brook Trout,49.07171,-88.85291,,,,Trend,9,,,,2019,7,18,18-Jul-19,16-Jul-19
3,NA,4,15-6143-55885,Bury L.,NA, Walleye,50.43634,-91.3911,27-May-19,1550,1.7,Trend,473.8,6.9,17,33271801.3,2019,7,11,11-Jul-19,"08-Jul-19, 09-Jul-19, 10-Jul-19, 11-Jul-19"
3,NA,4,15-6889-55829,Smye L.,NA, Walleye,50.3698,-90.34435,27-May-19,1457,1.4,Trend,283.6,2.9,21.1,8163500.27,2019,7,11,11-Jul-19,"08-Jul-19, 09-Jul-19, 10-Jul-19"
3,NA,6,16-3577-54402,Arnott L.,NA, Brook Trout,49.09594,-88.95538,"09-Jul-19, 23-May-19",,,Trend,39.4,,,,2019,7,9,09-Jul-19,06-Jul-19
3,NA,6,16-3589-54402,Eileen L.,NA, Brook Trout,49.1049,-88.94168,"09-Jul-19, 23-May-19, 24-May-19",,,Trend,65.9,,,,2019,7,9,09-Jul-19,07-Jul-19
3,NA,4,15-6244-55581,Singapore L.,NA, Walleye,50.16413,-91.26503,23-May-22,1556,1.9,Trend,592,6.3,18.8,41265001.25,2019,7,7,07-Jul-19,"05-Jul-19, 06-Jul-19, 07-Jul-19"
3,NA,4,15-6881-55875,Silver L.,NA, Walleye,50.41174,-90.35324,27-May-19,1454,1.4,Trend,152.8,2.7,10,4139207.6,2019,7,6,06-Jul-19,"05-Jul-19, 06-Jul-19"
3,NA,4,15-6523-56318,Miniss L.,NA, Walleye,50.82132,-90.87326,27-May-19,1479,1.2,Trend,6693.6,6,39,378857988.3,2019,7,5,05-Jul-19,"05-Jul-19, 06-Jul-19, 07-Jul-19, 08-Jul-19"
3,NA,6,16-3551-54440,Disraeli L.,NA, Lake Trout,49.13422,-88.982,"15-May-19, 24-May-19",,,Trend,433.2,10.6,32,45959117.34,2019,7,4,04-Jul-19,"04-Jul-19, 05-Jul-19, 06-Jul-19, 07-Jul-19, 08-Jul-19"
3,NA,4,15-4880-55820,Wabaskang L.,NA, Walleye,50.38864,-93.22539,21-May-19,1606,2.3,Trend,6150.2,7.6,28.7,470645208.9,2019,6,25,25-Jun-19,"24-Jun-19, 25-Jun-19, 26-Jun-19"
3,NA,4,15-6011-55383,Bawden L.,NA, Walleye,49.99869,-91.58399,23-May-22,1599,2.2,Trend,376.2,3.4,11,13120600.16,2019,6,23,23-Jun-19,"23-Jun-19, 24-Jun-19, 25-Jun-19"
3,NA,4,15-4653-55440,Clay L.,NA, Walleye,50.04611,-93.48572,21-May-19,1674,2.7,Trend,2755.4,7.9,21.9,243936206.8,2019,6,23,23-Jun-19,"23-Jun-19, 24-Jun-19, 25-Jun-19"
3,NA,4,15-5396-55107,Hartman L.,NA, Walleye,49.74941,-92.45084,21-May-19,1652,2.5,Trend,517.6,4.2,8.2,21239399.55,2019,6,23,23-Jun-19,"23-Jun-19, 24-Jun-19, 25-Jun-19"
3,NA,4,15-4660-56220,Pakwash L.,NA, Walleye,50.74727,-93.50609,21-May-19,1552,2,Trend,8637.9,6.8,17.4,668100018.7,2019,6,23,23-Jun-19,"21-Jun-19, 22-Jun-19"
3,NA,6,16-3582-53944,Beck L.,NA, Brook Trout,48.68681,-88.92751,,,,Trend,9.8,,,,2019,6,23,23-Jun-19,"23-Jun-19, 24-Jun-19, 25-Jun-19"
3,NA,4,15-5782-55201,Amik L.,NA, Walleye,49.83026,-91.91356,23-May-19,1626,2.4,Trend,1161.6,5.5,20.4,63260997.31,2019,6,22,22-Jun-19,"19-Jun-19, 20-Jun-19, 21-Jun-19"
3,NA,4,15-6531-54804,Selwyn L.,NA, Walleye,49.45958,-90.89168,23-May-19,1502,2.2,Trend,1003.3,1.9,9.8,18203899.31,2019,6,22,22-Jun-19,"19-Jun-19, 20-Jun-19, 21-Jun-19"
3,NA,6,16-3699-53936,Wideman L.,NA, Brook Trout,48.68394,-88.76817,,1430,2.9,Trend,29.5,4.6,12,1370825.23,2019,6,21,21-Jun-19,"19-Jun-19, 20-Jun-19, 21-Jun-19"
3,NA,4,15-4785-55574,Cliff L.,NA, Lake Trout,50.16879,-93.29998,21-May-19,1649,2.6,Trend,2236.3,9.2,34.1,245032785.9,2019,6,19,19-Jun-19,"20-Jun-19, 21-Jun-19, 22-Jun-19"
3,NA,4,15-5965-54891,Indian L.,NA, Walleye,49.54834,-91.66632,23-May-19,1598,2.4,Trend,4000.1,9.4,36,372503189.5,2019,6,11,11-Jun-19,"11-Jun-19, 12-Jun-19, 13-Jun-19, 14-Jun-19"
3,NA,4,15-6059-54782,Little Sandbar L.,NA, Walleye,49.45098,-91.54113,23-May-19,1586,2.5,Trend,218.5,2.7,7,5850900.02,2019,6,11,11-Jun-19,"11-Jun-19, 12-Jun-19, 13-Jun-19, 14-Jun-19"
3,NA,6,16-3750-54094,Innes L.,NA, Lake Trout,48.82849,-88.70686,,1429,2.8,Trend,220.4,8.3,42,18343191.49,2018,9,6,06-Sep-18,"04-Sep-18, 05-Sep-18, 06-Sep-18"
3,NA,6,15-6804-53764,Squeers L.,NA,,48.51628,-90.55746,,1466,2.5,Supplemental,369.6,11.5,33.6,44171500.7,2018,9,6,06-Sep-18,"04-Sep-18, 05-Sep-18, 06-Sep-18, 10-Sep-18"
3,NA,6,16-2773-53446,Whitefish L.,NA, Walleye,48.22119,-90.00085,18-May-18,1437,2.5,Trend,2871.3,2,6.4,60300000,2018,9,6,06-Sep-18,"04-Sep-18, 05-Sep-18, 06-Sep-18"
3,NA,6,15-7128-54128,Savanne L.,NA,,48.83265,-90.09804,,1435,2.3,Supplemental,365,2.5,4,9335345.21,2018,9,5,05-Sep-18,"27-Aug-18, 28-Aug-18, 29-Aug-18"
3,NA,6,15-6672-53552,Mowe L.,NA, Lake Trout,48.33174,-90.74281,18-May-18,1487,2.6,Trend,620.6,11.4,33,70933704.04,2018,8,29,29-Aug-18,"27-Aug-18, 28-Aug-18, 29-Aug-18"
3,NA,6,16-3723-53954,Upper Hunters L.,NA, Brook Trout,48.69995,-88.73578,,1428,2.9,Trend,27.2,1.8,8.2,498713.22,2018,8,29,29-Aug-18,"27-Aug-18, 28-Aug-18, 29-Aug-18, 30-Aug-18"
3,NA,6,16-3724-53943,Elbow L.,NA, Brook Trout,48.6909,-88.73401,,1428,2.9,Trend,14.9,6.7,19,990270.09,2018,8,27,27-Aug-18,"27-Aug-18, 28-Aug-18, 29-Aug-18"
3,NA,6,16-3069-55034,Holinshead L.,NA, Walleye,49.65403,-89.68153,20-May-18,1419,1.9,Trend,1957.5,5.3,16.8,119477906.9,2018,8,27,27-Aug-18,"27-Aug-18, 28-Aug-18"
3,NA,7,16-5087-55041,Kenogamisis L.,NA, Walleye,49.70602,-86.85844,02-Sep-18,1342,0.8,Trend,4250.5,1.9,9.2,79138802.72,2018,8,27,27-Aug-18,"27-Aug-18, 28-Aug-18, 29-Aug-18, 30-Aug-18, 31-Aug-18"
3,NA,5,15-3726-54565,"of the Woods, L.",NA, Walleye,49.32857,-94.50117,,,,Trend - nonrandom,219338.4,,,,2018,8,26,26-Aug-18,"26-Aug-18, 27-Aug-18, 28-Aug-18, 29-Aug-18, 30-Aug-18, 31-Aug-18"
3,NA,6,16-3346-55390,Obonga L.,NA, Walleye,49.97411,-89.3113,20-May-18,1384,1.5,Trend,3730.3,16.1,71.7,604849365.5,2018,8,22,22-Aug-18,"20-Aug-18, 21-Aug-18"
3,NA,6,15-6986-53540,Kamikau L.,NA, Lake Trout,48.30997,-90.3213,18-May-18,1451,2.5,Trend,156.3,6.6,19,10275558.46,2018,8,21,21-Aug-18,"19-Aug-18, 20-Aug-18"
3,NA,5,15-3726-54565,"of the Woods, L.",NA, Walleye,49.32857,-94.50117,,,,Trend - nonrandom,219338.4,,,,2018,8,20,20-Aug-18,"21-Aug-18, 22-Aug-18, 23-Aug-18, 24-Aug-18"
3,NA,6,16-4433-55531,Elbow L.,NA, Walleye,50.1298,-87.7934,20-May-18,1350,1,Trend,316.6,8.8,38.4,28292000.61,2018,8,20,20-Aug-18,"17-Aug-18, 18-Aug-18, 19-Aug-18"
3,NA,6,15-6832-53585,Titmarsh L.,NA, Lake Trout,48.35538,-90.52995,18-May-18,1467,2.5,Trend,968.3,13.6,49.4,130492003.7,2018,8,17,17-Aug-18,"15-Aug-18, 16-Aug-18, 17-Aug-18, 18-Aug-18"
3,NA,6,15-7163-54881,Kearns L.,NA, Walleye,49.50753,-90.01676,20-May-18,1432,1.9,Trend,931.6,5.4,15.3,48918602.18,2018,8,16,16-Aug-18,"13-Aug-18, 14-Aug-18, 15-Aug-18"
3,NA,6,16-3680-53921,Nalla L.,NA, Brook Trout,48.6695,-88.79215,,1431,2.9,Trend,46.3,8.3,21,4058700.22,2018,8,14,14-Aug-18,"13-Aug-18, 14-Aug-18"
3,NA,6,16-3663-55543,Castle L.,NA, Lake Trout,50.1269,-88.87219,20-May-18,1351,1.2,Trend,611.4,9.6,36,58874168.25,2018,8,13,13-Aug-18,"10-Aug-18, 11-Aug-18, 12-Aug-18, 13-Aug-18"
3,NA,6,15-6723-53466,Northern Light L.,NA, Walleye,48.24446,-90.6759,18-May-18,1482,2.6,Trend,6622.1,8.4,39.7,577063157.4,2018,8,12,12-Aug-18,"10-Aug-18, 11-Aug-18, 12-Aug-18, 13-Aug-18"
3,NA,6,15-6578-54141,Bedivere L.,NA, Walleye,48.86818,-90.84937,18-May-18,1488,2.4,Trend,2225.6,5.2,12.5,117114393.2,2018,8,11,11-Aug-18,"09-Aug-18, 10-Aug-18, 11-Aug-18, 12-Aug-18"
3,NA,6,15-6814-53436,Icarus L.,NA, Lake Trout,48.22011,-90.57186,18-May-18,1474,2.6,Trend,645,11.7,48,75635093.57,2018,8,11,11-Aug-18,"09-Aug-18, 10-Aug-18"
3,NA,5,15-3726-54565,"of the Woods, L.",NA, Walleye,49.32857,-94.50117,,,,Trend - nonrandom,219338.4,,,,2018,8,8,08-Aug-18,"08-Aug-18, 09-Aug-18, 10-Aug-18, 11-Aug-18, 12-Aug-18"
3,NA,6,15-7020-53669,Blunder L.,NA, Walleye,48.42444,-90.26943,18-May-18,1446,2.4,Trend,125.6,2.6,6.7,3343314.65,2018,8,2,02-Aug-18,"01-Aug-18, 30-Jul-18, 31-Jul-18"
3,NA,6,16-3638-54070,Greenwich L.,NA, Lake Trout,48.80501,-88.85841,21-May-18,1436,2.8,Trend,478.6,19.6,61,93766843.24,2018,8,2,02-Aug-18,"01-Aug-18, 02-Aug-18, 31-Jul-18"
3,NA,6,15-7111-54802,Holly L.,NA, Walleye,49.43642,-90.08177,20-May-18,1434,2,Trend,302.6,2.9,10,8850800.65,2018,8,2,02-Aug-18,"01-Aug-18, 30-Jul-18, 31-Jul-18"
3,NA,6,16-4080-53975,Lost L.,NA, Brook Trout,48.72577,-88.25103,20-May-18,1389,2.8,Trend,168.6,3,12,5005509.03,2018,8,2,02-Aug-18,"01-Aug-18, 31-Jul-18"
3,NA,6,16-3634-54687,Black Sturgeon L.,NA, Walleye,49.35824,-88.87211,21-May-18,1424,2.3,Trend,4874.4,18.5,52.4,944498981.9,2018,8,1,01-Aug-18,"01-Aug-18, 30-Jul-18, 31-Jul-18"
3,NA,6,16-3534-54692,Circle L.,NA, Walleye,49.35977,-89.01858,21-May-18,1422,2.2,Trend,386.2,5.2,15,20175999.26,2018,8,1,01-Aug-18,"01-Aug-18, 30-Jul-18, 31-Jul-18"
3,NA,5,15-6315-54021,Kawene L.,NA,,48.7611,-91.20623,,,,Supplemental,113.5,5.9,27,6715805.74,2018,7,30,30-Jul-18,"01-Aug-18, 02-Aug-18, 30-Jul-18, 31-Jul-18"
3,NA,6,16-3237-55525,Maggotte L.,NA, Walleye,50.10119,-89.46517,20-May-18,1388,1.4,Trend,115.3,7.4,24,8783799.89,2018,7,24,24-Jul-18,"22-Jul-18, 23-Jul-18, 24-Jul-18, 25-Jul-18"
3,NA,6,16-2901-53647,Marks L.,NA, Brook Trout,48.4031,-89.83696,,1442,2.5,Trend,39.4,3.6,13.9,1427183.07,2018,7,23,23-Jul-18,"23-Jul-18, 24-Jul-18"
3,NA,6,15-6708-53937,Stetham L.,NA, Lake Trout,48.67442,-90.68295,18-May-18,1473,2.4,Trend,228.5,7.5,27,17192840.17,2018,7,23,23-Jul-18,"21-Jul-18, 22-Jul-18, 23-Jul-18, 24-Jul-18"
3,NA,6,15-6508-53878,Tilly L.,NA, Lake Trout,48.62935,-90.9475,18-May-18,1506,2.6,Trend,403.5,9.1,31,36848168.12,2018,7,23,23-Jul-18,"22-Jul-18, 23-Jul-18, 24-Jul-18"
3,NA,6,16-4332-55499,Weewullee L.,NA, Brook Trout,50.09338,-87.9311,20-May-18,1353,1.1,Trend,55.2,15.4,45,8510270.57,2018,7,23,23-Jul-18,"22-Jul-18, 23-Jul-18"
3,NA,6,15-6804-53764,Squeers L.,NA,,48.51628,-90.55746,,1466,2.5,Supplemental,369.6,11.5,33.6,44171500.7,2018,7,22,22-Jul-18,"22-Jul-18, 23-Jul-18"
3,NA,6,15-7029-53799,Tinto L.,NA, Lake Trout,48.54084,-90.25014,18-May-18,1444,2.4,Trend,159,8.7,30,13877554.14,2018,7,22,22-Jul-18,"22-Jul-18, 23-Jul-18, 24-Jul-18"
3,NA,6,15-6981-54703,Pakashkan L.,NA, Walleye,49.39128,-90.27892,20-May-18,1439,2,Trend,5176.7,4.1,21.4,194221099.5,2018,7,21,21-Jul-18,"17-Jul-18, 18-Jul-18, 19-Jul-18, 20-Jul-18"
3,NA,6,16-3132-54041,Dog L.,NA, Walleye,48.77812,-89.51281,21-May-18,1446,2.6,Trend,14552.4,29.6,117,4382072799,2018,7,18,18-Jul-18,"17-Jul-18, 18-Jul-18, 19-Jul-18, 20-Jul-18, 21-Jul-18"
3,NA,6,16-3964-54451,Purdom L.,NA, Brook Trout,49.15261,-88.4217,20-May-18,1433,2.6,Trend,244.5,3.2,8.2,7875200.31,2018,7,18,18-Jul-18,"16-Jul-18, 17-Jul-18, 18-Jul-18"
3,NA,6,16-3610-55699,Randolph L.,NA, Brook Trout,50.27741,-88.96094,20-May-18,1339,1,Trend,126.1,7.8,15.4,9933498.87,2018,7,18,18-Jul-18,"18-Jul-18, 19-Jul-18, 20-Jul-18"
3,NA,6,15-6904-53837,Greenwater L.,NA, Lake Trout,48.57454,-90.42999,18-May-18,1453,2.4,Trend,3407.2,18.1,54.9,553914320.5,2018,7,17,17-Jul-18,"17-Jul-18, 18-Jul-18, 19-Jul-18"
3,NA,6,15-7128-54128,Savanne L.,NA,,48.83265,-90.09804,,1435,2.3,Supplemental,365,2.5,4,9335345.21,2018,7,17,17-Jul-18,"17-Jul-18, 18-Jul-18, 19-Jul-18, 20-Jul-18"
3,NA,6,15-6827-54135,"des Mille Lacs, La.",NA, Walleye,48.87653,-90.51282,21-May-18,1446,2.2,Trend,24510.9,6.8,24.4,1639670499,2018,7,12,12-Jul-18,"08-Jul-18, 09-Jul-18, 10-Jul-18, 11-Jul-18"
3,NA,6,16-3884-54562,Frazer L.,NA, Walleye,49.24882,-88.52882,20-May-18,1428,2.4,Trend,1967.9,5.3,12.2,103584504,2018,7,11,11-Jul-18,"08-Jul-18, 09-Jul-18, 10-Jul-18"
3,NA,6,16-2930-53355,Fallingsnow L.,NA, Lake Trout,48.14185,-89.7849,18-May-18,1455,2.7,Trend,144.8,13.4,33,19393711.72,2018,7,10,10-Jul-18,"08-Jul-18, 09-Jul-18, 10-Jul-18"
3,NA,6,16-3477-53867,Magone L.,NA, Brook Trout,48.61432,-89.06171,,,,Trend,26.4,3.9,10,1038724.81,2018,7,10,10-Jul-18,"10-Jul-18, 11-Jul-18"
3,NA,5,15-6315-54021,Kawene L.,NA,,48.7611,-91.20623,,,,Supplemental,113.5,5.9,27,6715805.74,2018,7,9,09-Jul-18,"07-Jul-18, 08-Jul-18, 09-Jul-18, 10-Jul-18, 11-Jul-18"
3,NA,6,15-6659-53963,Rudge L.,NA, Lake Trout,48.69703,-90.73502,18-May-18,1477,2.4,Trend,501.1,8.1,33,40605123.3,2018,7,8,08-Jul-18,"08-Jul-18, 09-Jul-18, 10-Jul-18, 11-Jul-18"
3,NA,6,16-3488-53829,Penassen L.s,NA,,48.58443,-89.04505,,1447,3,Supplemental,41.2,2.7,14,1103654.57,2018,7,7,07-Jul-18,"07-Jul-18, 08-Jul-18"
3,NA,6,16-3500-55543,Waweig L.,NA, Lake Trout,50.12945,-89.09663,20-May-18,1362,1.2,Trend,1151.8,15.2,42.7,175918051.8,2018,7,7,07-Jul-18,"04-Jul-18, 05-Jul-18, 06-Jul-18"
3,NA,6,15-6641-53950,Huronian L.,NA, Lake Trout,48.68758,-90.77235,18-May-18,1482,2.5,Trend,361.4,10.8,38,39067321.58,2018,7,6,06-Jul-18,"04-Jul-18, 05-Jul-18, 06-Jul-18, 07-Jul-18"
3,NA,6,15-6804-53764,Squeers L.,NA,,48.51628,-90.55746,,1466,2.5,Supplemental,369.6,11.5,33.6,44171500.7,2018,7,6,06-Jul-18,"04-Jul-18, 05-Jul-18"
3,NA,6,16-3483-54344,Walotka L.,NA, Lake Trout,49.04481,-89.07437,21-May-18,1436,2.6,Trend,93.9,9.8,23,9506000.19,2018,7,6,06-Jul-18,"04-Jul-18, 05-Jul-18, 06-Jul-18"
3,NA,6,16-3207-54488,Jolly L.,NA, Walleye,49.16785,-89.45932,21-May-18,1429,2.3,Trend,100.9,2.1,5,2034899.94,2018,6,27,27-Jun-18,"25-Jun-18, 26-Jun-18, 27-Jun-18"
3,NA,6,15-6747-53842,Burchell L.,NA, Lake Trout,48.58834,-90.62706,18-May-18,1470,2.4,Trend,1044.9,24.3,74.7,249463786.2,2018,6,26,26-Jun-18,"24-Jun-18, 25-Jun-18, 26-Jun-18"
3,NA,6,15-6979-55108,Empire L.,NA, Walleye,49.71999,-90.24726,20-May-18,1451,1.8,Trend,681.4,6,23.5,40625998.54,2018,6,26,26-Jun-18,"24-Jun-18, 25-Jun-18, 26-Jun-18"
3,NA,6,15-7053-53459,Sandstone L.,NA, Walleye,48.23175,-90.24029,18-May-18,1448,2.5,Trend,729.9,7.3,23.8,68269602.67,2018,6,26,26-Jun-18,"26-Jun-18, 27-Jun-18, 28-Jun-18"
3,NA,6,15-7091-53688,Batwing L.,NA, Walleye,48.44209,-90.17355,18-May-18,1441,2.4,Trend,614.6,6.6,14.9,41197200.21,2018,6,22,22-Jun-18,"20-Jun-18, 21-Jun-18, 22-Jun-18, 23-Jun-18"
3,NA,6,15-7031-55216,Sparkling L.,NA, Walleye,49.81424,-90.17712,20-May-18,1448,1.8,Trend,1221.8,9.7,30.5,122801997.6,2018,6,22,22-Jun-18,"20-Jun-18, 21-Jun-18, 22-Jun-18"
3,NA,6,15-7050-54058,Athelstane L.,NA, Walleye,48.77457,-90.20796,21-May-18,1438,2.3,Trend,1764.9,9.4,32.9,169801595.4,2018,6,21,21-Jun-18,"20-Jun-18, 21-Jun-18, 22-Jun-18"
3,NA,6,15-7025-53379,Arrow L.,NA, Lake Trout,48.15855,-90.26498,18-May-18,1455,2.6,Trend,3234.4,17.8,54.9,589963157.3,2018,6,19,19-Jun-18,"20-Jun-18, 21-Jun-18, 22-Jun-18, 23-Jun-18, 24-Jun-18, 25-Jun-18"
3,NA,6,15-6913-53983,Kashabowie L.,NA, Walleye,48.71886,-90.39423,21-May-18,1448,2.3,Trend,2163.3,7.4,35,169430409.4,2018,6,14,14-Jun-18,"12-Jun-18, 13-Jun-18, 14-Jun-18, 15-Jun-18"
3,NA,6,15-7026-53901,Middle Shebandowan L.,NA,,48.64559,-90.26705,,1443,2.4,Supplemental,1799.1,9.7,25,165549377.8,2018,6,12,12-Jun-18,"12-Jun-18, 13-Jun-18, 14-Jun-18, 15-Jun-18"
3,NA,4,15-4525-57350,Berens L.,NA, Walleye,51.75814,-93.71456,22-May-22,1454,0.9,Trend,2661.7,4.7,11.6,131148790.1,2022,5,22,,
3,NA,4,15-4902-55617,Cedar L.,NA,,50.17998,-93.16459,,,,Supplemental,2901.7,,,,,,,,
3,NA,4,15-4653-55440,Clay L.,NA,,50.04611,-93.48572,,1674,2.7,Supplemental,2755.4,7.9,21.9,243936206.8,,,,,
3,NA,4,15-4785-55574,Cliff L.,NA,,50.16879,-93.29998,,1649,2.6,Supplemental,2236.3,9.2,34.1,245032785.9,,,,,
3,NA,4,15-4520-56490,Keg L.,NA,,50.99542,-93.68541,21-May-19,1520,1.6,Supplemental,1100.8,7.1,15,78071723.71,2019,5,21,,
3,NA,4,15-6207-55385,Lake of B.s,NA,,49.98409,-91.28781,,1565,2,State,4326,7.5,25,325004945.2,,,,,
3,NA,4,15-5735-55360,Minnitaki L.,NA,,49.97183,-91.95802,,1631,2.3,Supplemental,17508.9,12.2,44,2128401752,,,,,
3,NA,4,15-4900-55708,Perrault L.,NA,,50.29084,-93.13068,,1624,2.4,Supplemental,3302.1,9.5,24.4,314540697.9,,,,,
3,NA,4,15-4304-57399,Pikangikum L.,NA, Walleye,51.80217,-93.99622,22-May-22,1465,0.9,Trend & State,5429.6,4.6,21,268000598.9,2022,5,22,,
3,NA,4,15-5085-55575,Thaddeus L.,NA,,50.17463,-92.89251,,1635,2.4,Supplemental,1566.4,8.5,16.2,132600000,,,,,
3,NA,4,15-4238-55430,Tom L.,NA, Lake Trout,50.03637,-94.06278,26-May-22,1718,2.9,Trend,57.1,12.1,36,6800200.31,2022,5,22,,
3,NA,4,15-6233-55269,Towers L.,NA, Walleye,49.88748,-91.2871,23-May-22,1565,2.1,Trend,102,10,32,10210285.28,2022,5,22,,
3,NA,4,15-4880-55820,Wabaskang L.,NA,,50.38864,-93.22539,,1606,2.3,Supplemental,6150.2,7.6,28.7,470645208.9,,,,,
3,NA,4,15-5464-56006,Wapesi L.,NA,,50.54216,-92.33631,21-May-19,1575,1.9,State,2350.9,2,9.2,47328000,2019,5,21,,
3,NA,4,15-6775-54775,Wawang L.,NA, Walleye,49.42645,-90.55214,,1466,2,Trend,1962.7,6.5,26.5,131397500,2021,1,0,,"25-Aug-21, 26-Aug-21, 27-Aug-21"
3,NA,5,15-4602-54790,Atikwa L.,NA, Lake Trout,49.49768,-93.53348,,1705,3.1,Trend,5196.5,13.2,59.5,711189563.9,,,,,
3,NA,5,15-4100-55022,Blindfold L.,NA, Walleye,49.67003,-94.25758,,1770,3.2,Trend,504.4,3.3,16.8,16374600.17,,,,,
3,NA,5,15-4100-55022,Blindfold L.,NA,,49.67003,-94.25758,,1770,3.2,Supplemental,504.4,3.3,16.8,16374600.17,2019,1,0,,"19-Aug-19, 20-Aug-19, 21-Aug-19, 22-Aug-19"
3,NA,5,15-5755-54281,Clearwater West L.,NA,,49.00747,-91.98602,,1618,2.9,Supplemental,3598.8,27.2,73.2,983151001.5,,,,,
3,NA,5,15-4115-55351,Cross L.,NA, Lake Trout,49.96489,-94.23609,26-May-22,1745,3,Trend,108.2,8.3,26.2,8656900.45,2022,5,26,,
3,NA,5,15-6263-53964,Crystal L.,NA,,48.7076,-91.27802,,1557,2.8,Supplemental,623.9,15.9,47,99948942.89,,,,,
3,NA,5,15-4399-55286,Daniels L.,NA, Lake Trout,49.92424,-93.85166,26-May-22,1716,3,Trend,1629.8,23.1,78.6,369461411.7,2022,5,26,,
3,NA,5,15-6460-54008,Elbow L.,NA,,48.74861,-91.02265,,,,Supplemental,567.4,,,,2022,1,0,,"15-Jul-22, 16-Jul-22, 17-Jul-22, 18-Jul-22, 19-Jul-22"
3,NA,5,15-6460-54008,Elbow L.,NA,,48.74861,-91.02265,,,,Supplemental,567.4,,,,2022,1,0,,"03-Aug-22, 04-Aug-22, 05-Aug-22, 06-Aug-22, 07-Aug-22"
3,NA,5,15-6340-53970,Eva L.,NA,,48.71744,-91.15971,,1542,2.7,Supplemental,1726.2,13.2,54.9,230036834.6,,,,,
3,NA,5,15-5688-53944,Factor L.,NA,,48.70208,-92.0698,,1614,3,Supplemental,640,14.5,49.4,93358454.4,,,,,
3,NA,5,15-6317-54251,Farley L.,NA, Walleye,48.96092,-91.20674,,1543,2.6,Trend,68.2,1.8,4.8,1254771.33,,,,,
3,NA,5,15-5670-54304,Grey Trout L.,NA,,49.0294,-92.07951,,1624,2.9,Supplemental,1333.2,17,48.8,220626008.3,,,,,
3,NA,5,15-5587-54132,Holmes L.,NA,,48.87064,-92.19604,,,,Supplemental,147.8,,,,,,,,
3,NA,5,15-5833-54665,Horseshoe L.,NA, Lake Trout,49.34622,-91.84931,,1613,2.6,Trend,103.6,5.4,19.9,5589452.98,,,,,
3,NA,5,15-6008-53925,Jim L.,NA,,48.67964,-91.63064,,,,Supplemental,200.2,,,,,,,,
3,NA,5,15-6315-54021,Kawene L.,NA,,48.7611,-91.20623,,,,Supplemental,113.5,5.9,27,6715805.74,,,,,
3,NA,5,15-6315-54021,Kawene L.,NA,,48.7611,-91.20623,,,,Supplemental,113.5,5.9,27,6715805.74,2018,1,0,,"18-Aug-18, 19-Aug-18, 20-Aug-18"
3,NA,5,15-6040-53925,Little Brown L.,NA,,48.67828,-91.58378,,,,Supplemental,57.9,,,,,,,,
3,NA,5,15-6298-53936,Marion L.,NA,,48.68405,-91.23491,,,,Supplemental,446,,,,,,,,
3,NA,5,15-5752-53953,McCaulay L.,NA,,48.70827,-91.97711,,1611,3,Supplemental,465.2,20.8,50,96755455.7,,,,,
3,NA,5,15-5913-53921,Narrow L.,NA,,48.67618,-91.75619,,,,Supplemental,51.4,,,,,,,,
3,NA,5,15-5842-54507,Nora L.,NA,,49.19934,-91.85993,,1611,2.7,Supplemental,1612.7,16.2,55.2,258001208.2,,,,,
3,NA,5,15-6136-53934,Nym L.,NA,,48.68333,-91.42721,,1577,2.9,Supplemental,1792.5,8.7,37.2,159914694.4,,,,,
3,NA,5,15-3726-54565,"of the Woods, L.",NA, Walleye,49.32857,-94.50117,15-May-18,,,Trend - nonrandom,219338.4,,,,2018,1,0,,
3,NA,5,15-3726-54565,"of the Woods, L.",NA, Walleye,49.32857,-94.50117,13-May-18,,,Trend - nonrandom,219338.4,,,,2018,1,0,,
3,NA,5,15-5940-53910,Owl L.,NA,,48.66661,-91.72276,,,,Supplemental,28.6,,,,,,,,
3,NA,5,15-5537-54222,Pettit L.,NA,,48.94535,-92.26647,,1630,3,Supplemental,1113,9,25,101181525.1,,,,,
3,NA,5,15-4557-54838,Populus L.,NA, Walleye,49.50585,-93.59764,,1709,3.1,Trend,694.1,8.2,39,54579196.73,,,,,
3,NA,5,15-3765-54101,Rainy R.,NA,,48.84651,-94.68436,,,,Supplemental,3955,,,,2018,1,0,,"01-Aug-18, 05-Jul-18, 06-Jul-18, 07-Jul-18, 08-Jul-18, 09-Jul-18, 10-Aug-18, 11-Aug-18, 12-Aug-18, 13-Aug-18, 14-Aug-18, 17-Jul-18, 18-Jul-18, 19-Jul-18, 20-Jul-18, 21-Jul-18, 21-Jun-18, 22-Aug-18, 22-Jul-18, 22-Jun-18, 23-Aug-18, 23-Jul-18, 23-Jun-18, 24-Aug-18, 24-Jun-18, 25-Aug-18, 25-Jun-18, 26-Aug-18, 26-Jun-18, 27-Aug-18, 27-Jun-18, 28-Aug-18, 31-Jul-18"
3,NA,5,15-3765-54101,Rainy R.,NA,,48.84651,-94.68436,,,,Supplemental,3955,,,,2019,1,0,,"09-Sep-19, 10-Sep-19, 11-Sep-19"
3,NA,5,15-3765-54101,Rainy R.,NA,,48.84651,-94.68436,,,,Supplemental,3955,,,,2019,1,0,,"12-Sep-19, 13-Sep-19, 14-Sep-19"
3,NA,5,15-3765-54101,Rainy R.,NA,,48.84651,-94.68436,,,,Supplemental,3955,,,,2018,1,0,,"01-Aug-18, 04-Jul-18, 05-Jul-18, 06-Jul-18, 07-Jul-18, 08-Jul-18, 09-Jul-18, 10-Aug-18, 11-Aug-18, 11-Sep-18, 12-Aug-18, 12-Sep-18, 13-Aug-18, 13-Sep-18, 14-Aug-18, 14-Sep-18, 15-Sep-18, 16-Sep-18, 17-Jul-18, 17-Sep-18, 18-Jul-18, 19-Jul-18, 20-Jul-18, 21-Jul-18, 21-Jun-18, 22-Aug-18, 22-Jul-18, 22-Jun-18, 23-Aug-18, 23-Jul-18, 23-Jun-18, 24-Aug-18, 24-Jun-18, 25-Aug-18, 25-Jun-18, 26-Aug-18, 26-Jun-18, 27-Aug-18, 27-Jun-18, 28-Aug-18, 31-Jul-18"
3,NA,5,15-5026-55337,Rugby L.,NA,,49.95675,-92.95825,,1662,2.6,Supplemental,1020.5,3.4,7.6,33469601.77,2019,1,0,,"09-Sep-19, 10-Sep-19, 11-Sep-19, 12-Sep-19"
3,NA,5,15-5955-54404,Sandford L.,NA, Lake Trout,49.10844,-91.68457,,1600,2.7,Trend,2912.1,36.8,114.7,1075185560,,,,,
3,NA,5,15-6218-54036,Sapawe L.,NA,,48.77264,-91.34185,,,,Supplemental,481.2,,,,2023,1,0,,"12-Jul-23, 13-Jul-23, 14-Jul-23"
3,NA,5,15-6218-54036,Sapawe L.,NA,,48.77264,-91.34185,,,,Supplemental,481.2,,,,2023,1,0,,"24-Aug-23, 25-Aug-23, 26-Aug-23"
3,NA,5,15-4785-54790,Tadpole L.,NA, Lake Trout,49.47038,-93.29066,,1692,3,Trend,521.8,9.6,36,50976002.03,,,,,
3,NA,5,15-5203-55093,Wabigoon L.,NA,,49.73222,-92.72928,,1665,2.6,Supplemental,10365.8,6.5,15,674349995,,,,,
3,NA,5,15-5654-53962,Warner L.,NA,,48.71612,-92.11263,,,,Supplemental,150.9,,,,,,,,
3,NA,5,15-4495-55118,Winnange L.,NA, Walleye,49.75528,-93.70447,,1712,3,Trend,2438.8,27.2,115.2,715768020.1,,,,,
3,NA,6,15-6910-53378,Addie L.,NA,,48.16665,-90.42954,,1465,2.6,Supplemental,117,2.1,3.7,2457542.27,,,,,
3,NA,6,15-7025-53379,Arrow L.,NA,,48.15855,-90.26498,,1455,2.6,Supplemental,3234.4,17.8,54.9,589963157.3,,,,,
3,NA,6,15-7050-54058,Athelstane L.,NA,,48.77457,-90.20796,,1438,2.3,Supplemental,1764.9,9.4,32.9,169801595.4,,,,,
3,NA,6,15-7097-53434,Atik L.,NA,,48.21094,-90.17813,18-May-18,1445,2.5,Supplemental,69.6,,,,2018,1,0,,
3,NA,6,16-4566-55070,Beatty L.,NA, Lake Trout,49.71792,-87.60467,20-May-18,1360,1.3,Trend,651.5,6.1,27.5,42657298.59,2018,1,0,,"10-Aug-18, 11-Aug-18, 12-Aug-18, 13-Aug-18"
3,NA,6,16-3738-53990,Bigger L.,NA, Brook Trout,48.73271,-88.7152,,,,Trend,12,,,,,,,,
3,NA,6,15-7020-53669,Blunder L.,NA,,48.42444,-90.26943,,1446,2.4,Supplemental,125.6,2.6,6.7,3343314.65,,,,,
3,NA,6,15-6747-53842,Burchell L.,NA,,48.58834,-90.62706,,1470,2.4,Supplemental,1044.9,24.3,74.7,249463786.2,,,,,
3,NA,6,15-7176-53418,Castle L.,NA,,48.19412,-90.07267,,1442,2.5,Supplemental,37.2,,,,,,,,
3,NA,6,15-7002-53661,Chambers L.,NA,,48.41885,-90.29282,,,,Supplemental,185.3,,,,,,,,
3,NA,6,16-3700-54335,Cliff L.,NA,,49.04188,-88.77821,,1436,2.6,Supplemental,41.1,5.4,12,2316600.12,,,,,
3,NA,6,16-4013-54584,Cox L.,NA,,49.27195,-88.35773,,,,Supplemental,217.5,,,,2021,1,0,,"16-Aug-21, 17-Aug-21"
3,NA,6,16-3557-55322,Cry L.,NA, Lake Trout,49.92643,-89.01587,20-May-18,1376,1.5,Trend,244.9,22.2,47.6,54767401.2,2018,1,0,,"14-Aug-18, 15-Aug-18, 16-Aug-18, 17-Aug-18"
3,NA,6,15-7039-53810,Dakota L.,NA,,48.55075,-90.23783,,1444,2.4,Supplemental,118.4,,,,,,,,
3,NA,6,15-6827-54135,"des Mille Lacs, La.",NA,,48.87653,-90.51282,,1446,2.2,Supplemental,24510.9,6.8,24.4,1639670499,,,,,
3,NA,6,15-6577-53565,Elevation L.,NA,,48.3436,-90.87116,,1499,2.6,Supplemental,104.2,,,,,,,,
3,NA,6,16-3710-54376,Elm L.,NA,,49.0786,-88.76521,,,,Supplemental,64.9,,,,,,,,
3,NA,6,16-3800-54060,Fall L.,NA, Brook Trout,48.79728,-88.63329,,,,Trend,12.4,,,,,,,,
3,NA,6,16-2930-53355,Fallingsnow L.,NA,,48.14185,-89.7849,,1455,2.7,Supplemental,144.8,13.4,33,19393711.72,,,,,
3,NA,6,15-6904-53837,Greenwater L.,NA,,48.57454,-90.42999,,1453,2.4,Supplemental,3407.2,18.1,54.9,553914320.5,,,,,
3,NA,6,16-3638-54070,Greenwich L.,NA,,48.80501,-88.85841,,1436,2.8,Supplemental,478.6,19.6,61,93766843.24,,,,,
3,NA,6,15-6812-53794,Grouse L.,NA, Lake Trout,48.54321,-90.54489,18-May-18,1464,2.4,Trend,86.9,15.7,38.4,13706100.31,2018,1,0,,"16-Aug-18, 17-Aug-18, 18-Aug-18, 19-Aug-18"
3,NA,6,16-4013-54300,Hansi L.,NA, Brook Trout,49.02274,-88.34887,,,,Trend,5.7,,,,2019,1,0,,09-Jul-19
3,NA,6,16-3752-53979,Hilma L.,NA, Brook Trout,48.72363,-88.6958,,1426,2.9,Trend,39.1,,,,,,,,
3,NA,6,15-6539-53616,Home L.,NA,,48.39187,-90.91955,,1503,2.6,Supplemental,59.3,,,,,,,,
3,NA,6,16-3724-53935,Hunters L.s,NA, Brook Trout,48.68849,-88.73973,,1428,2.9,Trend,27.9,4,19,1108620.7,,,,,
3,NA,6,15-6641-53950,Huronian L.,NA,,48.68758,-90.77235,,1482,2.5,Supplemental,361.4,10.8,38,39067321.58,,,,,
3,NA,6,15-6814-53436,Icarus L.,NA,,48.22011,-90.57186,,1474,2.6,Supplemental,645,11.7,48,75635093.57,,,,,
3,NA,6,16-3750-54094,Innes L.,NA,,48.82849,-88.70686,,1429,2.8,Supplemental,220.4,8.3,42,18343191.49,,,,,
3,NA,6,15-7019-53947,Kabaigon L.,NA,,48.6744,-90.25679,,,,Supplemental,138.2,,,,2020,1,0,,15-Sep-20
3,NA,6,15-7019-53947,Kabaigon L.,NA,,48.6744,-90.25679,,,,Supplemental,138.2,,,,2021,1,0,,"13-Jul-21, 14-Jul-21"
3,NA,6,15-6986-53540,Kamikau L.,NA,,48.30997,-90.3213,,1451,2.5,Supplemental,156.3,6.6,19,10275558.46,,,,,
3,NA,6,16-3359-53629,Kaministiquia R.,NA,,48.39204,-89.21879,,,,Supplemental,642.8,,,,2020,1,0,,"21-Sep-20, 22-Sep-20, 23-Sep-20, 24-Sep-20"
3,NA,6,15-6913-53983,Kashabowie L.,NA,,48.71886,-90.39423,,1448,2.3,Supplemental,2163.3,7.4,35,169430409.4,,,,,
3,NA,6,15-7067-53777,Kekekuab L.,NA,,48.51593,-90.20803,,1442,2.4,Supplemental,545.9,1.2,3,6645207.82,,,,,
3,NA,6,15-7023-54024,Little Athelstane L.,NA,,48.74472,-90.24681,,,,Supplemental,223.1,,,,,,,,
3,NA,6,16-3761-53954,Little Hilma L.,NA,,48.7079,-88.68404,,,,Supplemental,17.3,,,,,,,,
3,NA,6,16-3657-54310,Little Moraine L.,NA,,49.01989,-88.83585,,1436,2.6,Supplemental,234.1,13.2,32,30973474.07,,,,,
3,NA,6,16-3725-53994,Long L.,NA, Brook Trout,48.73714,-88.73431,,,,Trend,10.3,,,,,,,,
3,NA,6,16-3752-54002,MacIntosh L.,NA, Brook Trout,48.74456,-88.69785,,1427,2.9,Trend,48.4,,,,,,,,
3,NA,6,16-3752-54002,MacIntosh L.,NA,,48.74456,-88.69785,,1427,2.9,Supplemental,48.4,,,,,,,,
3,NA,6,16-3699-53994,Mackenzie L.,NA,,48.73581,-88.76982,,1431,2.9,Supplemental,53.7,,,,,,,,
3,NA,6,16-2901-53647,Marks L.,NA,,48.4031,-89.83696,,1442,2.5,Supplemental,39.4,3.6,13.9,1427183.07,,,,,
3,NA,6,15-7023-53650,McGrath L.,NA,,48.40684,-90.26696,,,,Supplemental,333.9,,,,,,,,
3,NA,6,16-3803-54067,Miner L.,NA,,48.80311,-88.62951,,1424,2.8,Supplemental,5.2,,,,,,,,
3,NA,6,16-3644-54282,Moraine L.,NA,,48.98836,-88.85198,,1437,2.7,Supplemental,280.2,,,,,,,,
3,NA,6,15-6672-53552,Mowe L.,NA,,48.33174,-90.74281,,1487,2.6,Supplemental,620.6,11.4,33,70933704.04,,,,,
3,NA,6,15-6681-53680,Myrt L.,NA,,48.44354,-90.7278,,1484,2.5,Supplemental,275.4,,,,,,,,
3,NA,6,16-3680-53921,Nalla L.,NA,,48.6695,-88.79215,,1431,2.9,Supplemental,46.3,8.3,21,4058700.22,,,,,
3,NA,6,15-6828-53703,Nelson L.,NA,,48.46221,-90.52889,,1464,2.5,Supplemental,653.1,5.7,11.8,40350300.04,,,,,
3,NA,6,16-3921-55210,"Nipigon, L.",NA, Walleye,49.82331,-88.51794,,,,Trend - nonrandom,449676.2,,,,2020,1,0,,"14-Sep-20, 15-Sep-20, 16-Sep-20, 17-Sep-20"
3,NA,6,16-3921-55210,"Nipigon, L.",NA, Walleye,49.82331,-88.51794,,,,Trend - nonrandom,449676.2,,,,2018,1,0,,"06-Jul-18, 07-Jul-18, 07-Sep-18, 08-Jul-18, 08-Sep-18, 09-Aug-18, 09-Jul-18, 10-Aug-18, 10-Jul-18, 10-Sep-18, 11-Aug-18, 11-Sep-18, 12-Aug-18, 12-Sep-18, 13-Aug-18, 14-Aug-18, 18-Jul-18, 19-Jul-18, 19-Jun-18, 20-Jun-18, 21-Jun-18, 22-Jun-18, 23-Aug-18, 23-Jun-18, 24-Aug-18, 24-Jun-18, 25-Aug-18, 25-Jul-18, 26-Aug-18, 26-Jul-18, 27-Aug-18, 27-Jul-18, 28-Aug-18, 28-Jul-18, 29-Jul-18, 30-Jul-18"
3,NA,6,16-3921-55210,"Nipigon, L.",NA, Walleye,49.82331,-88.51794,,,,Trend - nonrandom,449676.2,,,,2019,1,0,,"07-Aug-19, 08-Aug-19, 09-Aug-19, 09-Jul-19, 10-Aug-19, 10-Jul-19, 10-Sep-19, 11-Aug-19, 11-Jul-19, 11-Sep-19, 12-Jul-19, 12-Sep-19, 13-Jul-19, 13-Sep-19, 14-Sep-19, 17-Jun-19, 18-Jun-19, 19-Jun-19, 20-Jun-19, 21-Aug-19, 21-Jun-19, 22-Aug-19, 22-Jun-19, 23-Aug-19, 23-Jul-19, 24-Aug-19, 24-Jul-19, 25-Aug-19, 25-Jul-19, 26-Jul-19, 27-Jul-19"
3,NA,6,16-3742-54014,Nolan L.,NA,,48.75422,-88.71122,,1428,2.9,Supplemental,23.2,,,,,,,,
3,NA,6,15-6723-53466,Northern Light L.,NA,,48.24446,-90.6759,,1482,2.6,Supplemental,6622.1,8.4,39.7,577063157.4,,,,,
3,NA,6,16-3081-53489,Oliver L.,NA,,48.26566,-89.58774,,1476,2.9,Supplemental,196,,,,,,,,
3,NA,6,16-4000-54670,Oskawe L.,NA,,49.34929,-88.37581,,1413,2.3,Supplemental,563.7,6.2,18,34925820.54,2021,1,0,,"18-Aug-21, 19-Aug-21, 23-Aug-21"
3,NA,6,16-3708-54345,Pringle L.,NA,,49.05233,-88.76841,,1435,2.6,Supplemental,179.3,10.2,29,18295555.29,,,,,
3,NA,6,15-6569-53648,Redfox L.,NA,,48.4187,-90.88119,,1499,2.6,Supplemental,61,,,,,,,,
3,NA,6,15-6528-53582,Ross L.,NA,,48.36006,-90.93755,,1505,2.7,Supplemental,304.8,,,,,,,,
3,NA,6,15-6659-53963,Rudge L.,NA,,48.69703,-90.73502,,1477,2.4,Supplemental,501.1,8.1,33,40605123.3,,,,,
3,NA,6,15-7053-53459,Sandstone L.,NA,,48.23175,-90.24029,,1448,2.5,Supplemental,729.9,7.3,23.8,68269602.67,,,,,
3,NA,6,15-7128-54128,Savanne L.,NA,,48.83265,-90.09804,,1435,2.3,Supplemental,365,2.5,4,9335345.21,2018,1,0,,"09-Aug-18, 10-Aug-18, 11-Aug-18, 12-Aug-18"
3,NA,6,16-3803-54156,Scarp L.,NA,,48.88246,-88.63394,,,,Supplemental,17.4,,,,,,,,
3,NA,6,15-6988-53913,Shebandowan L.s,NA,,48.64304,-90.30157,,1444,2.4,Supplemental,5971.7,6.1,36.6,362115459.1,,,,,
3,NA,6,15-6804-53764,Squeers L.,NA,,48.51628,-90.55746,,1466,2.5,Supplemental,369.6,11.5,33.6,44171500.7,2018,1,0,,"14-Aug-18, 15-Aug-18, 16-Aug-18"
3,NA,6,15-6804-53764,Squeers L.,NA,,48.51628,-90.55746,,1466,2.5,Supplemental,369.6,11.5,33.6,44171500.7,2019,1,0,,"05-Jul-19, 06-Jul-19, 07-Jul-19, 08-Jul-19, 09-Jul-19, 10-Jul-19, 11-Jul-19"
3,NA,6,15-6804-53764,Squeers L.,NA,,48.51628,-90.55746,,1466,2.5,Supplemental,369.6,11.5,33.6,44171500.7,2019,1,0,,"01-Aug-19, 29-Jul-19, 30-Jul-19, 31-Jul-19"
3,NA,6,15-6804-53764,Squeers L.,NA,,48.51628,-90.55746,,1466,2.5,Supplemental,369.6,11.5,33.6,44171500.7,2019,1,0,,"12-Aug-19, 13-Aug-19, 14-Aug-19, 15-Aug-19"
3,NA,6,15-6708-53937,Stetham L.,NA,,48.67442,-90.68295,,1473,2.4,Supplemental,228.5,7.5,27,17192840.17,,,,,
3,NA,6,15-6885-53406,Sunbeam L.,NA,,48.19223,-90.4631,,1466,2.6,Supplemental,86.5,,,,,,,,
3,NA,6,15-6983-53701,Swallow L.,NA,,48.45519,-90.31935,,,,Supplemental,374.8,,,,,,,,
3,NA,6,15-6508-53878,Tilly L.,NA,,48.62935,-90.9475,,1506,2.6,Supplemental,403.5,9.1,31,36848168.12,,,,,
3,NA,6,15-7029-53799,Tinto L.,NA,,48.54084,-90.25014,,1444,2.4,Supplemental,159,8.7,30,13877554.14,,,,,
3,NA,6,15-6832-53585,Titmarsh L.,NA,,48.35538,-90.52995,,1467,2.5,Supplemental,968.3,13.6,49.4,130492003.7,,,,,
3,NA,6,15-6642-53574,Trout L.,NA,,48.34586,-90.79178,,1491,2.6,Supplemental,51.9,,,,,,,,
3,NA,6,15-6587-53594,Twinhouse L.,NA,,48.3689,-90.85668,,1498,2.6,Supplemental,104.7,5.3,15,5548221.48,,,,,
3,NA,6,16-3744-54268,Unknown L.,NA, Brook Trout,48.98106,-88.72206,21-May-18,1434,2.7,Trend,74.6,7.7,25,5751693.39,2018,1,0,,"24-Jul-18, 25-Jul-18"
3,NA,6,16-3483-54344,Walotka L.,NA,,49.04481,-89.07437,,1436,2.6,Supplemental,93.9,9.8,23,9506000.19,,,,,
3,NA,6,16-2773-53446,Whitefish L.,NA,,48.22119,-90.00085,,1437,2.5,Supplemental,2871.3,2,6.4,60300000,,,,,
3,NA,6,16-3738-54079,Wiggins L.,NA,,48.81279,-88.71842,,1430,2.8,Supplemental,23.1,,,,,,,,
3,NA,6,15-6550-53632,Wye L.,NA,,48.40446,-90.90487,,1502,2.6,Supplemental,77.5,,,,,,,,
3,NA,6,15-6896-53457,Yellowhammer L.,NA,,48.23741,-90.44997,,1464,2.6,Supplemental,189,,,,,,,,
3,NA,7,16-4544-54237,Ault L.,NA, Brook Trout,48.96646,-87.62369,,,,Trend,103,,,,,,,,
3,NA,7,16-5042-54260,Cairngorm L.,NA, Lake Trout,48.99187,-86.93716,,1255,1.9,Trend,699.6,14.7,61,151718700,,,,,
3,NA,7,16-4881-55533,Cavell L.,NA, Brook Trout,50.14754,-87.15817,,1339,0.6,Trend,83.1,0.5,1.7,401515.53,,,,,
3,NA,7,16-5058-54157,Diablo L.,NA, Brook Trout,48.89364,-86.91714,,,,Trend,107,,,,,,,,
3,NA,7,16-4741-54101,Jason L.,NA, Brook Trout,48.84579,-87.35303,,,,Trend,55,,,,,,,,
3,NA,7,16-5341-54366,Killala L.,NA, Lake Trout,49.07862,-86.52877,,1257,1.7,Trend,2516.3,19.9,92,501835552.6,,,,,
3,NA,7,16-4793-54217,Louise L.,NA, Brook Trout,48.94242,-87.28084,,1274,2.1,Trend,54.3,5.2,14,2826227.99,,,,,
3,NA,7,16-4747-54847,South Beatty L.,NA, Walleye,49.52071,-87.3487,,1343,1.4,Trend,285.8,2.6,5.9,7453084.25,2021,1,0,,"05-Aug-21, 06-Aug-21, 07-Aug-21"
3,NA,7,16-4720-54109,Whitesand L.,NA, Brook Trout,48.84703,-87.38162,,,,Trend,269,,,,,,,,
3,NA,7,16-4824-54701,Wig L.,NA, Walleye,49.38507,-87.24311,,1325,1.5,Trend,411.7,3.2,9.8,14928000.22,,,,,
3,NA,7,16-4802-54759,Wintering L.,NA, Walleye,49.43486,-87.28556,,1332,1.4,Trend,1709.4,4.8,36.6,79929600,,,,,
3,NA,7,16-5311-54861,Y L.,NA, Brook Trout,49.52868,-86.57058,,1309,1.1,Trend,30.8,8.9,24,2746555.09,,,,,